{
    "1123004": {
        "geoid": "1123004",
        "name": "Taloqan",
        "lat": 36.73605,
        "lng": 69.53451,
        "country": "AF",
        "state": "26",
        "population": 64256
    },
    "1125444": {
        "geoid": "1125444",
        "name": "Shibirghān",
        "lat": 36.66757,
        "lng": 65.7529,
        "country": "AF",
        "state": "31",
        "population": 55641
    },
    "1127110": {
        "geoid": "1127110",
        "name": "Sar-e Pul",
        "lat": 36.21544,
        "lng": 65.93249,
        "country": "AF",
        "state": "33",
        "population": 52121
    },
    "1130490": {
        "geoid": "1130490",
        "name": "Pul-e Khumrī",
        "lat": 35.94458,
        "lng": 68.71512,
        "country": "AF",
        "state": "03",
        "population": 56369
    },
    "1133453": {
        "geoid": "1133453",
        "name": "Maymana",
        "lat": 35.92139,
        "lng": 64.78361,
        "country": "AF",
        "state": "07",
        "population": 75900
    },
    "1133616": {
        "geoid": "1133616",
        "name": "Mazār-e Sharīf",
        "lat": 36.70904,
        "lng": 67.11087,
        "country": "AF",
        "state": "30",
        "population": 303282
    },
    "1135689": {
        "geoid": "1135689",
        "name": "Kunduz",
        "lat": 36.72895,
        "lng": 68.857,
        "country": "AF",
        "state": "24",
        "population": 161902
    },
    "1136469": {
        "geoid": "1136469",
        "name": "Khōst",
        "lat": 33.33951,
        "lng": 69.92041,
        "country": "AF",
        "state": "37",
        "population": 96123
    },
    "1136575": {
        "geoid": "1136575",
        "name": "Khulm",
        "lat": 36.69736,
        "lng": 67.69826,
        "country": "AF",
        "state": "30",
        "population": 64933
    },
    "1137168": {
        "geoid": "1137168",
        "name": "Khanabad",
        "lat": 36.6825,
        "lng": 69.11556,
        "country": "AF",
        "state": "24",
        "population": 71531
    },
    "1138336": {
        "geoid": "1138336",
        "name": "Kandahār",
        "lat": 31.61332,
        "lng": 65.71013,
        "country": "AF",
        "state": "23",
        "population": 391190
    },
    "1138958": {
        "geoid": "1138958",
        "name": "Kabul",
        "lat": 34.52813,
        "lng": 69.17233,
        "country": "AF",
        "state": "13",
        "population": 3043532
    },
    "1139715": {
        "geoid": "1139715",
        "name": "Jalālābād",
        "lat": 34.42647,
        "lng": 70.45153,
        "country": "AF",
        "state": "18",
        "population": 200331
    },
    "1140026": {
        "geoid": "1140026",
        "name": "Herāt",
        "lat": 34.34817,
        "lng": 62.19967,
        "country": "AF",
        "state": "11",
        "population": 272806
    },
    "1141269": {
        "geoid": "1141269",
        "name": "Ghazni",
        "lat": 33.55391,
        "lng": 68.42096,
        "country": "AF",
        "state": "08",
        "population": 141000
    },
    "1141857": {
        "geoid": "1141857",
        "name": "Gardēz",
        "lat": 33.59744,
        "lng": 69.22592,
        "country": "AF",
        "state": "36",
        "population": 103601
    },
    "1145352": {
        "geoid": "1145352",
        "name": "Charikar",
        "lat": 35.01361,
        "lng": 69.17139,
        "country": "AF",
        "state": "40",
        "population": 53676
    },
    "1147242": {
        "geoid": "1147242",
        "name": "Bāmyān",
        "lat": 34.82156,
        "lng": 67.82734,
        "country": "AF",
        "state": "05",
        "population": 61863
    },
    "1147290": {
        "geoid": "1147290",
        "name": "Balkh",
        "lat": 36.75635,
        "lng": 66.8972,
        "country": "AF",
        "state": "30",
        "population": 114883
    },
    "1147540": {
        "geoid": "1147540",
        "name": "Baghlān",
        "lat": 36.13068,
        "lng": 68.70829,
        "country": "AF",
        "state": "03",
        "population": 108449
    },
    "1429434": {
        "geoid": "1429434",
        "name": "Bāzārak",
        "lat": 35.31292,
        "lng": 69.51519,
        "country": "AF",
        "state": "42",
        "population": 65000
    }
}