{
    "1185092": {
        "geoid": "1185092",
        "name": "Thākurgaon",
        "lat": 26.03097,
        "lng": 88.46989,
        "country": "BD",
        "state": "87",
        "population": 71096
    },
    "1185098": {
        "geoid": "1185098",
        "name": "Tungi",
        "lat": 23.89154,
        "lng": 90.40232,
        "country": "BD",
        "state": "81",
        "population": 337579
    },
    "1185099": {
        "geoid": "1185099",
        "name": "Sylhet",
        "lat": 24.89904,
        "lng": 91.87198,
        "country": "BD",
        "state": "86",
        "population": 237000
    },
    "1185106": {
        "geoid": "1185106",
        "name": "Jamālpur",
        "lat": 24.91965,
        "lng": 89.94812,
        "country": "BD",
        "state": "81",
        "population": 167900
    },
    "1185111": {
        "geoid": "1185111",
        "name": "Sātkhira",
        "lat": 22.70817,
        "lng": 89.07185,
        "country": "BD",
        "state": "82",
        "population": 128918
    },
    "1185115": {
        "geoid": "1185115",
        "name": "Sirājganj",
        "lat": 24.45771,
        "lng": 89.70802,
        "country": "BD",
        "state": "83",
        "population": 127481
    },
    "1185116": {
        "geoid": "1185116",
        "name": "Netrakona",
        "lat": 24.88352,
        "lng": 90.72898,
        "country": "BD",
        "state": "81",
        "population": 79016
    },
    "1185117": {
        "geoid": "1185117",
        "name": "Narsingdi",
        "lat": 23.92298,
        "lng": 90.71768,
        "country": "BD",
        "state": "81",
        "population": 281080
    },
    "1185120": {
        "geoid": "1185120",
        "name": "Sandwīp",
        "lat": 22.51409,
        "lng": 91.45491,
        "country": "BD",
        "state": "84",
        "population": 52152
    },
    "1185121": {
        "geoid": "1185121",
        "name": "Shāhzādpur",
        "lat": 24.17687,
        "lng": 89.5988,
        "country": "BD",
        "state": "83",
        "population": 102420
    },
    "1185127": {
        "geoid": "1185127",
        "name": "Rāmganj",
        "lat": 23.1006,
        "lng": 90.84989,
        "country": "BD",
        "state": "84",
        "population": 55241
    },
    "1185128": {
        "geoid": "1185128",
        "name": "Rājshāhi",
        "lat": 24.374,
        "lng": 88.60114,
        "country": "BD",
        "state": "83",
        "population": 700133
    },
    "1185138": {
        "geoid": "1185138",
        "name": "Pirojpur",
        "lat": 22.57965,
        "lng": 89.97521,
        "country": "BD",
        "state": "85",
        "population": 54418
    },
    "1185148": {
        "geoid": "1185148",
        "name": "Patiya",
        "lat": 22.29543,
        "lng": 91.979,
        "country": "BD",
        "state": "84",
        "population": 51360
    },
    "1185155": {
        "geoid": "1185155",
        "name": "Nārāyanganj",
        "lat": 23.61352,
        "lng": 90.50298,
        "country": "BD",
        "state": "81",
        "population": 223622
    },
    "1185159": {
        "geoid": "1185159",
        "name": "Nāgarpur",
        "lat": 24.05783,
        "lng": 89.87696,
        "country": "BD",
        "state": "81",
        "population": 238422
    },
    "1185162": {
        "geoid": "1185162",
        "name": "Mymensingh",
        "lat": 24.75636,
        "lng": 90.40646,
        "country": "BD",
        "state": "81",
        "population": 225126
    },
    "1185166": {
        "geoid": "1185166",
        "name": "Maulavi Bāzār",
        "lat": 24.48888,
        "lng": 91.77075,
        "country": "BD",
        "state": "86",
        "population": 57441
    },
    "1185181": {
        "geoid": "1185181",
        "name": "Lalmanirhat",
        "lat": 25.91719,
        "lng": 89.44595,
        "country": "BD",
        "state": "87",
        "population": 65127
    },
    "1185183": {
        "geoid": "1185183",
        "name": "Lākshām",
        "lat": 23.24018,
        "lng": 91.12143,
        "country": "BD",
        "state": "84",
        "population": 82290
    },
    "1185186": {
        "geoid": "1185186",
        "name": "Comilla",
        "lat": 23.46186,
        "lng": 91.18503,
        "country": "BD",
        "state": "84",
        "population": 389411
    },
    "1185188": {
        "geoid": "1185188",
        "name": "Rangpur",
        "lat": 25.74664,
        "lng": 89.25166,
        "country": "BD",
        "state": "87",
        "population": 343122
    },
    "1185191": {
        "geoid": "1185191",
        "name": "Kushtia",
        "lat": 23.9028,
        "lng": 89.11943,
        "country": "BD",
        "state": "82",
        "population": 135724
    },
    "1185206": {
        "geoid": "1185206",
        "name": "Joypur Hāt",
        "lat": 25.10147,
        "lng": 89.02734,
        "country": "BD",
        "state": "83",
        "population": 73068
    },
    "1185207": {
        "geoid": "1185207",
        "name": "Ishurdi",
        "lat": 24.12858,
        "lng": 89.06573,
        "country": "BD",
        "state": "83",
        "population": 81995
    },
    "1185209": {
        "geoid": "1185209",
        "name": "Habiganj",
        "lat": 24.38044,
        "lng": 91.41299,
        "country": "BD",
        "state": "86",
        "population": 88760
    },
    "1185224": {
        "geoid": "1185224",
        "name": "Feni",
        "lat": 23.0144,
        "lng": 91.3966,
        "country": "BD",
        "state": "84",
        "population": 84028
    },
    "1185236": {
        "geoid": "1185236",
        "name": "Rāipur",
        "lat": 23.0391,
        "lng": 90.76808,
        "country": "BD",
        "state": "84",
        "population": 64652
    },
    "1185241": {
        "geoid": "1185241",
        "name": "Dhaka",
        "lat": 23.7104,
        "lng": 90.40744,
        "country": "BD",
        "state": "81",
        "population": 10356500
    },
    "1185252": {
        "geoid": "1185252",
        "name": "Khagrachhari",
        "lat": 23.10787,
        "lng": 91.97007,
        "country": "BD",
        "state": "84",
        "population": 50364
    },
    "1185263": {
        "geoid": "1185263",
        "name": "Bhairab Bāzār",
        "lat": 24.0524,
        "lng": 90.9764,
        "country": "BD",
        "state": "81",
        "population": 105457
    },
    "1185293": {
        "geoid": "1185293",
        "name": "Narail",
        "lat": 23.15509,
        "lng": 89.49515,
        "country": "BD",
        "state": "82",
        "population": 55112
    },
    "1185920": {
        "geoid": "1185920",
        "name": "Tungipāra",
        "lat": 22.89983,
        "lng": 89.90326,
        "country": "BD",
        "state": "81",
        "population": 62210
    },
    "1188569": {
        "geoid": "1188569",
        "name": "Sarishābāri",
        "lat": 24.75127,
        "lng": 89.83126,
        "country": "BD",
        "state": "81",
        "population": 81325
    },
    "1191368": {
        "geoid": "1191368",
        "name": "Pālang",
        "lat": 23.21824,
        "lng": 90.35076,
        "country": "BD",
        "state": "81",
        "population": 67652
    },
    "1192366": {
        "geoid": "1192366",
        "name": "Pār Naogaon",
        "lat": 24.80418,
        "lng": 88.94875,
        "country": "BD",
        "state": "83",
        "population": 192464
    },
    "1196292": {
        "geoid": "1196292",
        "name": "Lakshmīpur",
        "lat": 22.9443,
        "lng": 90.83005,
        "country": "BD",
        "state": "84",
        "population": 61703
    },
    "1203344": {
        "geoid": "1203344",
        "name": "Farīdpur",
        "lat": 23.60612,
        "lng": 89.84064,
        "country": "BD",
        "state": "81",
        "population": 112187
    },
    "1203891": {
        "geoid": "1203891",
        "name": "Dinājpur",
        "lat": 25.62745,
        "lng": 88.63779,
        "country": "BD",
        "state": "87",
        "population": 206234
    },
    "1205733": {
        "geoid": "1205733",
        "name": "Chittagong",
        "lat": 22.3384,
        "lng": 91.83168,
        "country": "BD",
        "state": "84",
        "population": 3920222
    },
    "1336133": {
        "geoid": "1336133",
        "name": "Sātkania",
        "lat": 22.07639,
        "lng": 92.04955,
        "country": "BD",
        "state": "84",
        "population": 52005
    },
    "1336134": {
        "geoid": "1336134",
        "name": "Cox’s Bāzār",
        "lat": 21.45388,
        "lng": 91.96765,
        "country": "BD",
        "state": "84",
        "population": 253788
    },
    "1336135": {
        "geoid": "1336135",
        "name": "Khulna",
        "lat": 22.80979,
        "lng": 89.56439,
        "country": "BD",
        "state": "82",
        "population": 1342339
    },
    "1336136": {
        "geoid": "1336136",
        "name": "Bhola",
        "lat": 22.68759,
        "lng": 90.64403,
        "country": "BD",
        "state": "85",
        "population": 99079
    },
    "1336137": {
        "geoid": "1336137",
        "name": "Barisāl",
        "lat": 22.70497,
        "lng": 90.37013,
        "country": "BD",
        "state": "85",
        "population": 202242
    },
    "1336140": {
        "geoid": "1336140",
        "name": "Jessore",
        "lat": 23.16971,
        "lng": 89.21371,
        "country": "BD",
        "state": "82",
        "population": 243987
    },
    "1336143": {
        "geoid": "1336143",
        "name": "Pābna",
        "lat": 24.00644,
        "lng": 89.2372,
        "country": "BD",
        "state": "83",
        "population": 186781
    },
    "1336144": {
        "geoid": "1336144",
        "name": "Tāngāil",
        "lat": 24.24984,
        "lng": 89.91655,
        "country": "BD",
        "state": "81",
        "population": 180144
    },
    "1337233": {
        "geoid": "1337233",
        "name": "Bogra",
        "lat": 24.85098,
        "lng": 89.37108,
        "country": "BD",
        "state": "83",
        "population": 210000
    },
    "1337240": {
        "geoid": "1337240",
        "name": "Nawābganj",
        "lat": 24.59025,
        "lng": 88.27444,
        "country": "BD",
        "state": "83",
        "population": 142361
    },
    "1337245": {
        "geoid": "1337245",
        "name": "Mādārīpur",
        "lat": 23.17097,
        "lng": 90.20935,
        "country": "BD",
        "state": "81",
        "population": 84789
    },
    "1337248": {
        "geoid": "1337248",
        "name": "Sherpur",
        "lat": 25.01881,
        "lng": 90.01751,
        "country": "BD",
        "state": "81",
        "population": 107419
    },
    "1337249": {
        "geoid": "1337249",
        "name": "Kishorganj",
        "lat": 24.43944,
        "lng": 90.78291,
        "country": "BD",
        "state": "81",
        "population": 90690
    },
    "6545349": {
        "geoid": "6545349",
        "name": "Saidpur",
        "lat": 25.77769,
        "lng": 88.89169,
        "country": "BD",
        "state": "83",
        "population": 199422
    },
    "7701354": {
        "geoid": "7701354",
        "name": "Azimpur",
        "lat": 23.7298,
        "lng": 90.3854,
        "country": "BD",
        "state": "81",
        "population": 96641
    },
    "9827976": {
        "geoid": "9827976",
        "name": "Paltan",
        "lat": 23.73625,
        "lng": 90.41426,
        "country": "BD",
        "state": "81",
        "population": 184492
    }
}