{
    "2784821": {
        "geoid": "2784821",
        "name": "Verviers",
        "lat": 50.58907,
        "lng": 5.86241,
        "country": "BE",
        "state": "WAL",
        "population": 52824
    },
    "2785341": {
        "geoid": "2785341",
        "name": "Tournai",
        "lat": 50.60715,
        "lng": 3.38932,
        "country": "BE",
        "state": "WAL",
        "population": 67721
    },
    "2786578": {
        "geoid": "2786578",
        "name": "Sint-Niklaas",
        "lat": 51.16509,
        "lng": 4.1437,
        "country": "BE",
        "state": "VLG",
        "population": 69010
    },
    "2786824": {
        "geoid": "2786824",
        "name": "Seraing",
        "lat": 50.58362,
        "lng": 5.50115,
        "country": "BE",
        "state": "WAL",
        "population": 60737
    },
    "2787889": {
        "geoid": "2787889",
        "name": "Roeselare",
        "lat": 50.94653,
        "lng": 3.12269,
        "country": "BE",
        "state": "VLG",
        "population": 56016
    },
    "2789786": {
        "geoid": "2789786",
        "name": "Ostend",
        "lat": 51.21551,
        "lng": 2.927,
        "country": "BE",
        "state": "VLG",
        "population": 69011
    },
    "2790471": {
        "geoid": "2790471",
        "name": "Namur",
        "lat": 50.4669,
        "lng": 4.86746,
        "country": "BE",
        "state": "WAL",
        "population": 106284
    },
    "2790595": {
        "geoid": "2790595",
        "name": "Mouscron",
        "lat": 50.74497,
        "lng": 3.20639,
        "country": "BE",
        "state": "WAL",
        "population": 52069
    },
    "2790869": {
        "geoid": "2790869",
        "name": "Mons",
        "lat": 50.45413,
        "lng": 3.95229,
        "country": "BE",
        "state": "WAL",
        "population": 91277
    },
    "2791537": {
        "geoid": "2791537",
        "name": "Mechelen",
        "lat": 51.02574,
        "lng": 4.47762,
        "country": "BE",
        "state": "VLG",
        "population": 77530
    },
    "2792413": {
        "geoid": "2792413",
        "name": "Liège",
        "lat": 50.63373,
        "lng": 5.56749,
        "country": "BE",
        "state": "WAL",
        "population": 182597
    },
    "2792482": {
        "geoid": "2792482",
        "name": "Leuven",
        "lat": 50.87959,
        "lng": 4.70093,
        "country": "BE",
        "state": "VLG",
        "population": 92892
    },
    "2793508": {
        "geoid": "2793508",
        "name": "La Louvière",
        "lat": 50.48657,
        "lng": 4.18785,
        "country": "BE",
        "state": "WAL",
        "population": 76668
    },
    "2794055": {
        "geoid": "2794055",
        "name": "Kortrijk",
        "lat": 50.82803,
        "lng": 3.26487,
        "country": "BE",
        "state": "VLG",
        "population": 73879
    },
    "2796491": {
        "geoid": "2796491",
        "name": "Hasselt",
        "lat": 50.93106,
        "lng": 5.33781,
        "country": "BE",
        "state": "VLG",
        "population": 69222
    },
    "2797656": {
        "geoid": "2797656",
        "name": "Gent",
        "lat": 51.05,
        "lng": 3.71667,
        "country": "BE",
        "state": "VLG",
        "population": 231493
    },
    "2797670": {
        "geoid": "2797670",
        "name": "Genk",
        "lat": 50.965,
        "lng": 5.50082,
        "country": "BE",
        "state": "VLG",
        "population": 63666
    },
    "2800481": {
        "geoid": "2800481",
        "name": "Charleroi",
        "lat": 50.41136,
        "lng": 4.44448,
        "country": "BE",
        "state": "WAL",
        "population": 200132
    },
    "2800866": {
        "geoid": "2800866",
        "name": "Brussels",
        "lat": 50.85045,
        "lng": 4.34878,
        "country": "BE",
        "state": "BRU",
        "population": 1019022
    },
    "2800931": {
        "geoid": "2800931",
        "name": "Brugge",
        "lat": 51.20892,
        "lng": 3.22424,
        "country": "BE",
        "state": "VLG",
        "population": 116709
    },
    "2803138": {
        "geoid": "2803138",
        "name": "Antwerpen",
        "lat": 51.21989,
        "lng": 4.40346,
        "country": "BE",
        "state": "VLG",
        "population": 459805
    },
    "2803448": {
        "geoid": "2803448",
        "name": "Aalst",
        "lat": 50.93604,
        "lng": 4.0355,
        "country": "BE",
        "state": "VLG",
        "population": 77534
    }
}