{
    "725578": {
        "geoid": "725578",
        "name": "Yambol",
        "lat": 42.48333,
        "lng": 26.5,
        "country": "BG",
        "state": "65",
        "population": 80116
    },
    "725712": {
        "geoid": "725712",
        "name": "Vratsa",
        "lat": 43.21,
        "lng": 23.5625,
        "country": "BG",
        "state": "64",
        "population": 64941
    },
    "725905": {
        "geoid": "725905",
        "name": "Vidin",
        "lat": 43.99,
        "lng": 22.8725,
        "country": "BG",
        "state": "63",
        "population": 54409
    },
    "725993": {
        "geoid": "725993",
        "name": "Veliko Tŭrnovo",
        "lat": 43.08124,
        "lng": 25.62904,
        "country": "BG",
        "state": "62",
        "population": 66217
    },
    "726050": {
        "geoid": "726050",
        "name": "Varna",
        "lat": 43.21667,
        "lng": 27.91667,
        "country": "BG",
        "state": "61",
        "population": 312770
    },
    "726418": {
        "geoid": "726418",
        "name": "Dobrich",
        "lat": 43.56667,
        "lng": 27.83333,
        "country": "BG",
        "state": "40",
        "population": 94831
    },
    "726848": {
        "geoid": "726848",
        "name": "Stara Zagora",
        "lat": 42.43278,
        "lng": 25.64194,
        "country": "BG",
        "state": "59",
        "population": 143431
    },
    "727011": {
        "geoid": "727011",
        "name": "Sofia",
        "lat": 42.69751,
        "lng": 23.32415,
        "country": "BG",
        "state": "42",
        "population": 1152556
    },
    "727079": {
        "geoid": "727079",
        "name": "Sliven",
        "lat": 42.68583,
        "lng": 26.32917,
        "country": "BG",
        "state": "56",
        "population": 96368
    },
    "727233": {
        "geoid": "727233",
        "name": "Shumen",
        "lat": 43.27064,
        "lng": 26.92286,
        "country": "BG",
        "state": "54",
        "population": 87283
    },
    "727523": {
        "geoid": "727523",
        "name": "Ruse",
        "lat": 43.85639,
        "lng": 25.97083,
        "country": "BG",
        "state": "53",
        "population": 156238
    },
    "728193": {
        "geoid": "728193",
        "name": "Plovdiv",
        "lat": 42.15,
        "lng": 24.75,
        "country": "BG",
        "state": "51",
        "population": 340494
    },
    "728203": {
        "geoid": "728203",
        "name": "Pleven",
        "lat": 43.41667,
        "lng": 24.61667,
        "country": "BG",
        "state": "50",
        "population": 118675
    },
    "728330": {
        "geoid": "728330",
        "name": "Pernik",
        "lat": 42.6,
        "lng": 23.03333,
        "country": "BG",
        "state": "49",
        "population": 82467
    },
    "728378": {
        "geoid": "728378",
        "name": "Pazardzhik",
        "lat": 42.2,
        "lng": 24.33333,
        "country": "BG",
        "state": "48",
        "population": 75977
    },
    "729794": {
        "geoid": "729794",
        "name": "Kardzhali",
        "lat": 41.65,
        "lng": 25.36667,
        "country": "BG",
        "state": "44",
        "population": 51000
    },
    "730435": {
        "geoid": "730435",
        "name": "Haskovo",
        "lat": 41.93415,
        "lng": 25.55557,
        "country": "BG",
        "state": "43",
        "population": 79699
    },
    "730496": {
        "geoid": "730496",
        "name": "Kazanlŭk",
        "lat": 42.61667,
        "lng": 25.4,
        "country": "BG",
        "state": "59",
        "population": 55196
    },
    "731549": {
        "geoid": "731549",
        "name": "Gabrovo",
        "lat": 42.87472,
        "lng": 25.33417,
        "country": "BG",
        "state": "41",
        "population": 66175
    },
    "732770": {
        "geoid": "732770",
        "name": "Burgas",
        "lat": 42.50606,
        "lng": 27.46781,
        "country": "BG",
        "state": "39",
        "population": 195966
    },
    "733191": {
        "geoid": "733191",
        "name": "Blagoevgrad",
        "lat": 42.01667,
        "lng": 23.1,
        "country": "BG",
        "state": "38",
        "population": 71306
    },
    "733618": {
        "geoid": "733618",
        "name": "Asenovgrad",
        "lat": 42.01667,
        "lng": 24.86667,
        "country": "BG",
        "state": "51",
        "population": 52170
    }
}