{
    "3491941": {
        "geoid": "3491941",
        "name": "Villa Francisca",
        "lat": 18.46667,
        "lng": -69.9,
        "country": "DO",
        "state": "34",
        "population": 50185
    },
    "3492908": {
        "geoid": "3492908",
        "name": "Santo Domingo",
        "lat": 18.50012,
        "lng": -69.98857,
        "country": "DO",
        "state": "34",
        "population": 2201941
    },
    "3492914": {
        "geoid": "3492914",
        "name": "Santiago de los Caballeros",
        "lat": 19.4517,
        "lng": -70.69703,
        "country": "DO",
        "state": "25",
        "population": 1200000
    },
    "3492985": {
        "geoid": "3492985",
        "name": "Santa Cruz de Barahona",
        "lat": 18.20854,
        "lng": -71.10077,
        "country": "DO",
        "state": "03",
        "population": 77160
    },
    "3493032": {
        "geoid": "3493032",
        "name": "San Pedro de Macorís",
        "lat": 18.46156,
        "lng": -69.29718,
        "country": "DO",
        "state": "24",
        "population": 217899
    },
    "3493081": {
        "geoid": "3493081",
        "name": "San Juan de la Maguana",
        "lat": 18.80588,
        "lng": -71.22991,
        "country": "DO",
        "state": "23",
        "population": 72950
    },
    "3493146": {
        "geoid": "3493146",
        "name": "San Francisco de Macorís",
        "lat": 19.30099,
        "lng": -70.25259,
        "country": "DO",
        "state": "06",
        "population": 124763
    },
    "3493175": {
        "geoid": "3493175",
        "name": "Puerto Plata",
        "lat": 19.79344,
        "lng": -70.6884,
        "country": "DO",
        "state": "18",
        "population": 146000
    },
    "3493240": {
        "geoid": "3493240",
        "name": "Salvaleón de Higüey",
        "lat": 18.61501,
        "lng": -68.70798,
        "country": "DO",
        "state": "10",
        "population": 123787
    },
    "3494242": {
        "geoid": "3494242",
        "name": "Punta Cana",
        "lat": 18.58182,
        "lng": -68.40431,
        "country": "DO",
        "state": "10",
        "population": 100023
    },
    "3496331": {
        "geoid": "3496331",
        "name": "Moca",
        "lat": 19.39352,
        "lng": -70.52598,
        "country": "DO",
        "state": "08",
        "population": 61834
    },
    "3500957": {
        "geoid": "3500957",
        "name": "La Romana",
        "lat": 18.42733,
        "lng": -68.97285,
        "country": "DO",
        "state": "12",
        "population": 208437
    },
    "3509382": {
        "geoid": "3509382",
        "name": "Concepción de La Vega",
        "lat": 19.22207,
        "lng": -70.52956,
        "country": "DO",
        "state": "30",
        "population": 102426
    },
    "3511233": {
        "geoid": "3511233",
        "name": "Bonao",
        "lat": 18.93687,
        "lng": -70.40923,
        "country": "DO",
        "state": "31",
        "population": 73269
    },
    "3511540": {
        "geoid": "3511540",
        "name": "San Cristóbal",
        "lat": 18.41667,
        "lng": -70.1,
        "country": "DO",
        "state": "33",
        "population": 154040
    },
    "3511550": {
        "geoid": "3511550",
        "name": "Bella Vista",
        "lat": 18.45539,
        "lng": -69.9454,
        "country": "DO",
        "state": "34",
        "population": 175683
    },
    "3512067": {
        "geoid": "3512067",
        "name": "Baní",
        "lat": 18.27964,
        "lng": -70.33185,
        "country": "DO",
        "state": "35",
        "population": 66709
    },
    "3512128": {
        "geoid": "3512128",
        "name": "Bajos de Haina",
        "lat": 18.41538,
        "lng": -70.03317,
        "country": "DO",
        "state": "33",
        "population": 66784
    },
    "3512208": {
        "geoid": "3512208",
        "name": "Azua",
        "lat": 18.45319,
        "lng": -70.7349,
        "country": "DO",
        "state": "01",
        "population": 59139
    },
    "7874116": {
        "geoid": "7874116",
        "name": "Santo Domingo Oeste",
        "lat": 18.5,
        "lng": -70,
        "country": "DO",
        "state": "37",
        "population": 701269
    }
}