{
    "2294206": {
        "geoid": "2294206",
        "name": "Wa",
        "lat": 10.06069,
        "lng": -2.50192,
        "country": "GH",
        "state": "11",
        "population": 78107
    },
    "2294665": {
        "geoid": "2294665",
        "name": "Teshi Old Town",
        "lat": 5.58365,
        "lng": -0.10722,
        "country": "GH",
        "state": "01",
        "population": 144013
    },
    "2294700": {
        "geoid": "2294700",
        "name": "Tema",
        "lat": 5.6698,
        "lng": -0.01657,
        "country": "GH",
        "state": "01",
        "population": 155782
    },
    "2294727": {
        "geoid": "2294727",
        "name": "Techiman",
        "lat": 7.58617,
        "lng": -1.94137,
        "country": "GH",
        "state": "03",
        "population": 69720
    },
    "2294877": {
        "geoid": "2294877",
        "name": "Tamale",
        "lat": 9.40079,
        "lng": -0.8393,
        "country": "GH",
        "state": "06",
        "population": 360579
    },
    "2294915": {
        "geoid": "2294915",
        "name": "Takoradi",
        "lat": 4.88447,
        "lng": -1.75536,
        "country": "GH",
        "state": "09",
        "population": 232919
    },
    "2294938": {
        "geoid": "2294938",
        "name": "Tafo",
        "lat": 6.73453,
        "lng": -1.61275,
        "country": "GH",
        "state": "02",
        "population": 50457
    },
    "2294962": {
        "geoid": "2294962",
        "name": "Swedru",
        "lat": 5.53711,
        "lng": -0.69984,
        "country": "GH",
        "state": "04",
        "population": 50293
    },
    "2295021": {
        "geoid": "2295021",
        "name": "Sunyani",
        "lat": 7.33991,
        "lng": -2.32676,
        "country": "GH",
        "state": "03",
        "population": 70299
    },
    "2295458": {
        "geoid": "2295458",
        "name": "Sekondi-Takoradi",
        "lat": 4.934,
        "lng": -1.7137,
        "country": "GH",
        "state": "09",
        "population": 138872
    },
    "2296564": {
        "geoid": "2296564",
        "name": "Akim Oda",
        "lat": 5.92665,
        "lng": -0.98577,
        "country": "GH",
        "state": "05",
        "population": 60604
    },
    "2296606": {
        "geoid": "2296606",
        "name": "Obuasi",
        "lat": 6.20602,
        "lng": -1.66191,
        "country": "GH",
        "state": "02",
        "population": 137856
    },
    "2296969": {
        "geoid": "2296969",
        "name": "Nungua",
        "lat": 5.60105,
        "lng": -0.07713,
        "country": "GH",
        "state": "01",
        "population": 70483
    },
    "2297313": {
        "geoid": "2297313",
        "name": "Nkawkaw",
        "lat": 6.55121,
        "lng": -0.7662,
        "country": "GH",
        "state": "05",
        "population": 61785
    },
    "2298330": {
        "geoid": "2298330",
        "name": "Medina Estates",
        "lat": 5.6658,
        "lng": -0.16307,
        "country": "GH",
        "state": "01",
        "population": 101207
    },
    "2298890": {
        "geoid": "2298890",
        "name": "Kumasi",
        "lat": 6.68848,
        "lng": -1.62443,
        "country": "GH",
        "state": "02",
        "population": 1468609
    },
    "2299522": {
        "geoid": "2299522",
        "name": "Koforidua",
        "lat": 6.09408,
        "lng": -0.25913,
        "country": "GH",
        "state": "05",
        "population": 96266
    },
    "2300372": {
        "geoid": "2300372",
        "name": "Hohoe",
        "lat": 7.15181,
        "lng": 0.47362,
        "country": "GH",
        "state": "08",
        "population": 56202
    },
    "2300379": {
        "geoid": "2300379",
        "name": "Ho",
        "lat": 6.60084,
        "lng": 0.4713,
        "country": "GH",
        "state": "08",
        "population": 69998
    },
    "2301217": {
        "geoid": "2301217",
        "name": "Ejura",
        "lat": 7.38558,
        "lng": -1.35617,
        "country": "GH",
        "state": "02",
        "population": 70807
    },
    "2302357": {
        "geoid": "2302357",
        "name": "Cape Coast",
        "lat": 5.10535,
        "lng": -1.2466,
        "country": "GH",
        "state": "04",
        "population": 143015
    },
    "2302821": {
        "geoid": "2302821",
        "name": "Bolgatanga",
        "lat": 10.78556,
        "lng": -0.85139,
        "country": "GH",
        "state": "10",
        "population": 54430
    },
    "2303125": {
        "geoid": "2303125",
        "name": "Berekum",
        "lat": 7.4534,
        "lng": -2.58404,
        "country": "GH",
        "state": "03",
        "population": 62364
    },
    "2303287": {
        "geoid": "2303287",
        "name": "Bawku",
        "lat": 11.0616,
        "lng": -0.24169,
        "country": "GH",
        "state": "10",
        "population": 56830
    },
    "2306079": {
        "geoid": "2306079",
        "name": "Achiaman",
        "lat": 5.7,
        "lng": -0.33333,
        "country": "GH",
        "state": "01",
        "population": 202932
    },
    "2306104": {
        "geoid": "2306104",
        "name": "Accra",
        "lat": 5.55602,
        "lng": -0.1969,
        "country": "GH",
        "state": "01",
        "population": 1963264
    }
}