{
    "1252758": {
        "geoid": "1252758",
        "name": "Yelahanka",
        "lat": 13.10073,
        "lng": 77.59632,
        "country": "IN",
        "state": "19",
        "population": 116447
    },
    "1252770": {
        "geoid": "1252770",
        "name": "Yavatmāl",
        "lat": 20.39324,
        "lng": 78.13201,
        "country": "IN",
        "state": "16",
        "population": 128175
    },
    "1252797": {
        "geoid": "1252797",
        "name": "Yamunānagar",
        "lat": 30.12796,
        "lng": 77.28371,
        "country": "IN",
        "state": "10",
        "population": 208931
    },
    "1252822": {
        "geoid": "1252822",
        "name": "Yādgīr",
        "lat": 16.77007,
        "lng": 77.13755,
        "country": "IN",
        "state": "19",
        "population": 65376
    },
    "1252840": {
        "geoid": "1252840",
        "name": "Wokha",
        "lat": 26.09717,
        "lng": 94.25817,
        "country": "IN",
        "state": "20",
        "population": 54010
    },
    "1252908": {
        "geoid": "1252908",
        "name": "Wāshīm",
        "lat": 20.11128,
        "lng": 77.133,
        "country": "IN",
        "state": "16",
        "population": 68622
    },
    "1252942": {
        "geoid": "1252942",
        "name": "Wardha",
        "lat": 20.73933,
        "lng": 78.59784,
        "country": "IN",
        "state": "16",
        "population": 113759
    },
    "1252948": {
        "geoid": "1252948",
        "name": "Warangal",
        "lat": 18,
        "lng": 79.58333,
        "country": "IN",
        "state": "40",
        "population": 557802
    },
    "1252956": {
        "geoid": "1252956",
        "name": "Wanparti",
        "lat": 16.36738,
        "lng": 78.06889,
        "country": "IN",
        "state": "40",
        "population": 55182
    },
    "1252960": {
        "geoid": "1252960",
        "name": "Wani",
        "lat": 20.05507,
        "lng": 78.95313,
        "country": "IN",
        "state": "16",
        "population": 57288
    },
    "1253079": {
        "geoid": "1253079",
        "name": "Vrindāvan",
        "lat": 27.58105,
        "lng": 77.69662,
        "country": "IN",
        "state": "36",
        "population": 60195
    },
    "1253080": {
        "geoid": "1253080",
        "name": "Vriddhāchalam",
        "lat": 11.51528,
        "lng": 79.32186,
        "country": "IN",
        "state": "25",
        "population": 61498
    },
    "1253084": {
        "geoid": "1253084",
        "name": "Vizianagaram",
        "lat": 18.11692,
        "lng": 83.41148,
        "country": "IN",
        "state": "02",
        "population": 179358
    },
    "1253095": {
        "geoid": "1253095",
        "name": "Visnagar",
        "lat": 23.69855,
        "lng": 72.5521,
        "country": "IN",
        "state": "09",
        "population": 68619
    },
    "1253102": {
        "geoid": "1253102",
        "name": "Visakhapatnam",
        "lat": 17.68009,
        "lng": 83.20161,
        "country": "IN",
        "state": "02",
        "population": 1063178
    },
    "1253113": {
        "geoid": "1253113",
        "name": "Virudunagar",
        "lat": 9.58509,
        "lng": 77.95787,
        "country": "IN",
        "state": "25",
        "population": 73273
    },
    "1253133": {
        "geoid": "1253133",
        "name": "Virār",
        "lat": 19.45591,
        "lng": 72.81136,
        "country": "IN",
        "state": "16",
        "population": 150357
    },
    "1253150": {
        "geoid": "1253150",
        "name": "Vinukonda",
        "lat": 16.0531,
        "lng": 79.73964,
        "country": "IN",
        "state": "02",
        "population": 61326
    },
    "1253166": {
        "geoid": "1253166",
        "name": "Villupuram",
        "lat": 11.93975,
        "lng": 79.49244,
        "country": "IN",
        "state": "25",
        "population": 97380
    },
    "1253184": {
        "geoid": "1253184",
        "name": "Vijayawada",
        "lat": 16.50745,
        "lng": 80.6466,
        "country": "IN",
        "state": "02",
        "population": 874587
    },
    "1253200": {
        "geoid": "1253200",
        "name": "Vidisha",
        "lat": 23.52604,
        "lng": 77.81092,
        "country": "IN",
        "state": "35",
        "population": 140045
    },
    "1253237": {
        "geoid": "1253237",
        "name": "Verāval",
        "lat": 20.9077,
        "lng": 70.36786,
        "country": "IN",
        "state": "09",
        "population": 163326
    },
    "1253286": {
        "geoid": "1253286",
        "name": "Vellore",
        "lat": 12.9184,
        "lng": 79.13255,
        "country": "IN",
        "state": "25",
        "population": 177081
    },
    "1253315": {
        "geoid": "1253315",
        "name": "Vejalpur",
        "lat": 22.69021,
        "lng": 73.56299,
        "country": "IN",
        "state": "09",
        "population": 121610
    },
    "1253367": {
        "geoid": "1253367",
        "name": "Vāsco Da Gāma",
        "lat": 15.39585,
        "lng": 73.81568,
        "country": "IN",
        "state": "33",
        "population": 100485
    },
    "1253405": {
        "geoid": "1253405",
        "name": "Varanasi",
        "lat": 25.31668,
        "lng": 83.01041,
        "country": "IN",
        "state": "36",
        "population": 1164404
    },
    "1253437": {
        "geoid": "1253437",
        "name": "Vaniyambadi",
        "lat": 12.68162,
        "lng": 78.62014,
        "country": "IN",
        "state": "25",
        "population": 90288
    },
    "1253468": {
        "geoid": "1253468",
        "name": "Valsād",
        "lat": 20.61728,
        "lng": 72.92843,
        "country": "IN",
        "state": "09",
        "population": 72929
    },
    "1253472": {
        "geoid": "1253472",
        "name": "Valparai",
        "lat": 10.32691,
        "lng": 76.95116,
        "country": "IN",
        "state": "25",
        "population": 90353
    },
    "1253573": {
        "geoid": "1253573",
        "name": "Vadodara",
        "lat": 22.29941,
        "lng": 73.20812,
        "country": "IN",
        "state": "09",
        "population": 1409476
    },
    "1253736": {
        "geoid": "1253736",
        "name": "Upleta",
        "lat": 21.74015,
        "lng": 70.28256,
        "country": "IN",
        "state": "09",
        "population": 56354
    },
    "1253744": {
        "geoid": "1253744",
        "name": "Uppal Kalan",
        "lat": 17.40577,
        "lng": 78.55911,
        "country": "IN",
        "state": "40",
        "population": 118259
    },
    "1253747": {
        "geoid": "1253747",
        "name": "Unnāo",
        "lat": 26.54706,
        "lng": 80.48781,
        "country": "IN",
        "state": "36",
        "population": 161671
    },
    "1253750": {
        "geoid": "1253750",
        "name": "Unjha",
        "lat": 23.80366,
        "lng": 72.39101,
        "country": "IN",
        "state": "09",
        "population": 54620
    },
    "1253783": {
        "geoid": "1253783",
        "name": "Una",
        "lat": 20.82318,
        "lng": 71.03795,
        "country": "IN",
        "state": "09",
        "population": 56545
    },
    "1253807": {
        "geoid": "1253807",
        "name": "Umred",
        "lat": 20.85396,
        "lng": 79.32466,
        "country": "IN",
        "state": "16",
        "population": 51794
    },
    "1253888": {
        "geoid": "1253888",
        "name": "Ullal",
        "lat": 12.8108,
        "lng": 74.8629,
        "country": "IN",
        "state": "19",
        "population": 59116
    },
    "1253894": {
        "geoid": "1253894",
        "name": "Ulhasnagar",
        "lat": 19.21667,
        "lng": 73.15,
        "country": "IN",
        "state": "16",
        "population": 516584
    },
    "1253914": {
        "geoid": "1253914",
        "name": "Ujjain",
        "lat": 23.18239,
        "lng": 75.77643,
        "country": "IN",
        "state": "35",
        "population": 457346
    },
    "1253918": {
        "geoid": "1253918",
        "name": "Ujhāni",
        "lat": 28.00311,
        "lng": 79.00821,
        "country": "IN",
        "state": "36",
        "population": 56309
    },
    "1253944": {
        "geoid": "1253944",
        "name": "Udumalaippettai",
        "lat": 10.58806,
        "lng": 77.24779,
        "country": "IN",
        "state": "25",
        "population": 58571
    },
    "1253952": {
        "geoid": "1253952",
        "name": "Udipi",
        "lat": 13.33467,
        "lng": 74.74617,
        "country": "IN",
        "state": "19",
        "population": 129113
    },
    "1253956": {
        "geoid": "1253956",
        "name": "Udhampur",
        "lat": 32.92431,
        "lng": 75.13573,
        "country": "IN",
        "state": "12",
        "population": 80447
    },
    "1253958": {
        "geoid": "1253958",
        "name": "Udgīr",
        "lat": 18.39258,
        "lng": 77.11756,
        "country": "IN",
        "state": "16",
        "population": 101064
    },
    "1253986": {
        "geoid": "1253986",
        "name": "Udaipur",
        "lat": 24.57117,
        "lng": 73.69183,
        "country": "IN",
        "state": "24",
        "population": 422784
    },
    "1253993": {
        "geoid": "1253993",
        "name": "Ooty",
        "lat": 11.4134,
        "lng": 76.69521,
        "country": "IN",
        "state": "25",
        "population": 98238
    },
    "1254046": {
        "geoid": "1254046",
        "name": "Tura",
        "lat": 25.51421,
        "lng": 90.20239,
        "country": "IN",
        "state": "18",
        "population": 63645
    },
    "1254054": {
        "geoid": "1254054",
        "name": "Tuni",
        "lat": 17.35905,
        "lng": 82.54607,
        "country": "IN",
        "state": "02",
        "population": 52658
    },
    "1254069": {
        "geoid": "1254069",
        "name": "Tūndla",
        "lat": 27.2146,
        "lng": 78.23683,
        "country": "IN",
        "state": "36",
        "population": 50939
    },
    "1254089": {
        "geoid": "1254089",
        "name": "Tumkūr",
        "lat": 13.34136,
        "lng": 77.1022,
        "country": "IN",
        "state": "19",
        "population": 307359
    },
    "1254163": {
        "geoid": "1254163",
        "name": "Thiruvananthapuram",
        "lat": 8.4855,
        "lng": 76.94924,
        "country": "IN",
        "state": "13",
        "population": 784153
    },
    "1254187": {
        "geoid": "1254187",
        "name": "Trichūr",
        "lat": 10.51667,
        "lng": 76.21667,
        "country": "IN",
        "state": "13",
        "population": 325110
    },
    "1254241": {
        "geoid": "1254241",
        "name": "Tonk",
        "lat": 26.16638,
        "lng": 75.78824,
        "country": "IN",
        "state": "24",
        "population": 151331
    },
    "1254274": {
        "geoid": "1254274",
        "name": "Tohāna",
        "lat": 29.71332,
        "lng": 75.90441,
        "country": "IN",
        "state": "10",
        "population": 59749
    },
    "1254309": {
        "geoid": "1254309",
        "name": "Titāgarh",
        "lat": 22.74252,
        "lng": 88.37326,
        "country": "IN",
        "state": "28",
        "population": 127751
    },
    "1254320": {
        "geoid": "1254320",
        "name": "Tiruvottiyūr",
        "lat": 13.15823,
        "lng": 80.30181,
        "country": "IN",
        "state": "25",
        "population": 248059
    },
    "1254327": {
        "geoid": "1254327",
        "name": "Tiruvannāmalai",
        "lat": 12.22662,
        "lng": 79.07461,
        "country": "IN",
        "state": "25",
        "population": 138243
    },
    "1254335": {
        "geoid": "1254335",
        "name": "Tiruvalla",
        "lat": 9.3816,
        "lng": 76.57489,
        "country": "IN",
        "state": "13",
        "population": 57223
    },
    "1254343": {
        "geoid": "1254343",
        "name": "Tiruttangal",
        "lat": 9.48333,
        "lng": 77.83333,
        "country": "IN",
        "state": "25",
        "population": 54499
    },
    "1254346": {
        "geoid": "1254346",
        "name": "Tirur",
        "lat": 10.91368,
        "lng": 75.92118,
        "country": "IN",
        "state": "13",
        "population": 54934
    },
    "1254348": {
        "geoid": "1254348",
        "name": "Tiruppur",
        "lat": 11.11541,
        "lng": 77.35456,
        "country": "IN",
        "state": "25",
        "population": 397521
    },
    "1254360": {
        "geoid": "1254360",
        "name": "Tirupati",
        "lat": 13.63551,
        "lng": 79.41989,
        "country": "IN",
        "state": "02",
        "population": 250821
    },
    "1254361": {
        "geoid": "1254361",
        "name": "Tirunelveli",
        "lat": 8.72518,
        "lng": 77.68452,
        "country": "IN",
        "state": "25",
        "population": 435844
    },
    "1254385": {
        "geoid": "1254385",
        "name": "Tiruchengode",
        "lat": 11.38016,
        "lng": 77.89444,
        "country": "IN",
        "state": "25",
        "population": 87123
    },
    "1254388": {
        "geoid": "1254388",
        "name": "Tiruchirappalli",
        "lat": 10.8155,
        "lng": 78.69651,
        "country": "IN",
        "state": "25",
        "population": 775484
    },
    "1254420": {
        "geoid": "1254420",
        "name": "Tiptūr",
        "lat": 13.2563,
        "lng": 76.47768,
        "country": "IN",
        "state": "19",
        "population": 60957
    },
    "1254432": {
        "geoid": "1254432",
        "name": "Tinsukia",
        "lat": 27.48905,
        "lng": 95.35992,
        "country": "IN",
        "state": "03",
        "population": 89373
    },
    "1254444": {
        "geoid": "1254444",
        "name": "Tindivanam",
        "lat": 12.234,
        "lng": 79.65551,
        "country": "IN",
        "state": "25",
        "population": 69839
    },
    "1254481": {
        "geoid": "1254481",
        "name": "Tilhar",
        "lat": 27.96282,
        "lng": 79.73827,
        "country": "IN",
        "state": "36",
        "population": 57043
    },
    "1254534": {
        "geoid": "1254534",
        "name": "Tīkamgarh",
        "lat": 24.74327,
        "lng": 78.83061,
        "country": "IN",
        "state": "35",
        "population": 74724
    },
    "1254589": {
        "geoid": "1254589",
        "name": "Thiruvarur",
        "lat": 10.77269,
        "lng": 79.6368,
        "country": "IN",
        "state": "25",
        "population": 58777
    },
    "1254649": {
        "geoid": "1254649",
        "name": "Thanjāvūr",
        "lat": 10.78523,
        "lng": 79.13909,
        "country": "IN",
        "state": "25",
        "population": 219571
    },
    "1254657": {
        "geoid": "1254657",
        "name": "Thānesar",
        "lat": 29.97323,
        "lng": 76.83214,
        "country": "IN",
        "state": "10",
        "population": 138279
    },
    "1254661": {
        "geoid": "1254661",
        "name": "Thāne",
        "lat": 19.19704,
        "lng": 72.96355,
        "country": "IN",
        "state": "16",
        "population": 1261517
    },
    "1254710": {
        "geoid": "1254710",
        "name": "Tezpur",
        "lat": 26.63333,
        "lng": 92.8,
        "country": "IN",
        "state": "03",
        "population": 58851
    },
    "1254744": {
        "geoid": "1254744",
        "name": "Thenkasi",
        "lat": 8.96003,
        "lng": 77.31525,
        "country": "IN",
        "state": "25",
        "population": 65496
    },
    "1254745": {
        "geoid": "1254745",
        "name": "Teni",
        "lat": 10.01531,
        "lng": 77.482,
        "country": "IN",
        "state": "25",
        "population": 1034724
    },
    "1254780": {
        "geoid": "1254780",
        "name": "Tellicherry",
        "lat": 11.74811,
        "lng": 75.4929,
        "country": "IN",
        "state": "13",
        "population": 97201
    },
    "1254868": {
        "geoid": "1254868",
        "name": "Tarn Tāran",
        "lat": 31.45191,
        "lng": 74.92777,
        "country": "IN",
        "state": "23",
        "population": 58585
    },
    "1254953": {
        "geoid": "1254953",
        "name": "Tanuku",
        "lat": 16.75438,
        "lng": 81.68143,
        "country": "IN",
        "state": "02",
        "population": 68290
    },
    "1255004": {
        "geoid": "1255004",
        "name": "Tāndūr",
        "lat": 17.24849,
        "lng": 77.57698,
        "country": "IN",
        "state": "40",
        "population": 63239
    },
    "1255024": {
        "geoid": "1255024",
        "name": "Tāndā",
        "lat": 26.54953,
        "lng": 82.65841,
        "country": "IN",
        "state": "36",
        "population": 88073
    },
    "1255121": {
        "geoid": "1255121",
        "name": "Talipparamba",
        "lat": 12.04161,
        "lng": 75.35927,
        "country": "IN",
        "state": "13",
        "population": 69878
    },
    "1255254": {
        "geoid": "1255254",
        "name": "Tādpatri",
        "lat": 14.90813,
        "lng": 78.01108,
        "country": "IN",
        "state": "02",
        "population": 93044
    },
    "1255264": {
        "geoid": "1255264",
        "name": "Tādepallegūdem",
        "lat": 16.81467,
        "lng": 81.52717,
        "country": "IN",
        "state": "02",
        "population": 108167
    },
    "1255344": {
        "geoid": "1255344",
        "name": "Suriāpet",
        "lat": 17.14054,
        "lng": 79.62045,
        "country": "IN",
        "state": "40",
        "population": 111729
    },
    "1255349": {
        "geoid": "1255349",
        "name": "Surendranagar",
        "lat": 22.72706,
        "lng": 71.64856,
        "country": "IN",
        "state": "09",
        "population": 179628
    },
    "1255361": {
        "geoid": "1255361",
        "name": "Sūratgarh",
        "lat": 29.3215,
        "lng": 73.89979,
        "country": "IN",
        "state": "24",
        "population": 63153
    },
    "1255364": {
        "geoid": "1255364",
        "name": "Sūrat",
        "lat": 21.19594,
        "lng": 72.83023,
        "country": "IN",
        "state": "09",
        "population": 2894504
    },
    "1255396": {
        "geoid": "1255396",
        "name": "Supaul",
        "lat": 26.11503,
        "lng": 86.59527,
        "country": "IN",
        "state": "34",
        "population": 60020
    },
    "1255449": {
        "geoid": "1255449",
        "name": "Sunām",
        "lat": 30.12883,
        "lng": 75.79943,
        "country": "IN",
        "state": "23",
        "population": 53647
    },
    "1255491": {
        "geoid": "1255491",
        "name": "Sultānpur",
        "lat": 26.25788,
        "lng": 82.07269,
        "country": "IN",
        "state": "36",
        "population": 110368
    },
    "1255560": {
        "geoid": "1255560",
        "name": "Sūjāngarh",
        "lat": 27.7,
        "lng": 74.46667,
        "country": "IN",
        "state": "24",
        "population": 183808
    },
    "1255616": {
        "geoid": "1255616",
        "name": "Srivilliputhur",
        "lat": 9.51272,
        "lng": 77.63369,
        "country": "IN",
        "state": "25",
        "population": 74370
    },
    "1255634": {
        "geoid": "1255634",
        "name": "Srinagar",
        "lat": 34.08565,
        "lng": 74.80555,
        "country": "IN",
        "state": "12",
        "population": 975857
    },
    "1255647": {
        "geoid": "1255647",
        "name": "Chicacole",
        "lat": 18.2989,
        "lng": 83.89751,
        "country": "IN",
        "state": "02",
        "population": 118299
    },
    "1255714": {
        "geoid": "1255714",
        "name": "Sopur",
        "lat": 34.28671,
        "lng": 74.47228,
        "country": "IN",
        "state": "12",
        "population": 63035
    },
    "1255744": {
        "geoid": "1255744",
        "name": "Sonīpat",
        "lat": 28.99478,
        "lng": 77.01937,
        "country": "IN",
        "state": "10",
        "population": 250521
    },
    "1255927": {
        "geoid": "1255927",
        "name": "Siwān",
        "lat": 26.22096,
        "lng": 84.35609,
        "country": "IN",
        "state": "34",
        "population": 119181
    },
    "1255947": {
        "geoid": "1255947",
        "name": "Sivakasi",
        "lat": 9.44999,
        "lng": 77.79797,
        "country": "IN",
        "state": "25",
        "population": 74282
    },
    "1255955": {
        "geoid": "1255955",
        "name": "Siuri",
        "lat": 23.90806,
        "lng": 87.52773,
        "country": "IN",
        "state": "28",
        "population": 64659
    },
    "1255969": {
        "geoid": "1255969",
        "name": "Sītāpur",
        "lat": 27.56192,
        "lng": 80.68265,
        "country": "IN",
        "state": "36",
        "population": 164435
    },
    "1255983": {
        "geoid": "1255983",
        "name": "Sītāmarhi",
        "lat": 26.59357,
        "lng": 85.4906,
        "country": "IN",
        "state": "34",
        "population": 57095
    },
    "1256039": {
        "geoid": "1256039",
        "name": "Sirsilla",
        "lat": 18.38865,
        "lng": 78.81048,
        "country": "IN",
        "state": "40",
        "population": 71499
    },
    "1256047": {
        "geoid": "1256047",
        "name": "Sirsi",
        "lat": 14.62072,
        "lng": 74.83554,
        "country": "IN",
        "state": "19",
        "population": 61607
    },
    "1256052": {
        "geoid": "1256052",
        "name": "Sirsa",
        "lat": 29.53489,
        "lng": 75.02898,
        "country": "IN",
        "state": "10",
        "population": 181639
    },
    "1256087": {
        "geoid": "1256087",
        "name": "Sirhind",
        "lat": 30.64321,
        "lng": 76.38421,
        "country": "IN",
        "state": "23",
        "population": 60847
    },
    "1256104": {
        "geoid": "1256104",
        "name": "Sīra",
        "lat": 13.74155,
        "lng": 76.9043,
        "country": "IN",
        "state": "19",
        "population": 57928
    },
    "1256207": {
        "geoid": "1256207",
        "name": "Sindhnūr",
        "lat": 15.76983,
        "lng": 76.75581,
        "country": "IN",
        "state": "19",
        "population": 68793
    },
    "1256237": {
        "geoid": "1256237",
        "name": "Shimla",
        "lat": 31.10442,
        "lng": 77.16662,
        "country": "IN",
        "state": "11",
        "population": 173503
    },
    "1256269": {
        "geoid": "1256269",
        "name": "Sillod",
        "lat": 20.30303,
        "lng": 75.65284,
        "country": "IN",
        "state": "16",
        "population": 51042
    },
    "1256287": {
        "geoid": "1256287",
        "name": "Silchar",
        "lat": 24.82733,
        "lng": 92.79787,
        "country": "IN",
        "state": "03",
        "population": 152393
    },
    "1256320": {
        "geoid": "1256320",
        "name": "Sīkar",
        "lat": 27.61206,
        "lng": 75.13996,
        "country": "IN",
        "state": "24",
        "population": 199932
    },
    "1256329": {
        "geoid": "1256329",
        "name": "Sikandarābād",
        "lat": 28.45226,
        "lng": 77.70004,
        "country": "IN",
        "state": "36",
        "population": 73379
    },
    "1256343": {
        "geoid": "1256343",
        "name": "Sihor",
        "lat": 21.71134,
        "lng": 71.96179,
        "country": "IN",
        "state": "09",
        "population": 52603
    },
    "1256369": {
        "geoid": "1256369",
        "name": "Sidhi",
        "lat": 24.4038,
        "lng": 81.87954,
        "country": "IN",
        "state": "35",
        "population": 54242
    },
    "1256377": {
        "geoid": "1256377",
        "name": "Siddipet",
        "lat": 18.10483,
        "lng": 78.84858,
        "country": "IN",
        "state": "40",
        "population": 64562
    },
    "1256382": {
        "geoid": "1256382",
        "name": "Siddhapur",
        "lat": 23.91783,
        "lng": 72.37212,
        "country": "IN",
        "state": "09",
        "population": 54313
    },
    "1256388": {
        "geoid": "1256388",
        "name": "Sibsāgar",
        "lat": 26.98427,
        "lng": 94.63784,
        "country": "IN",
        "state": "03",
        "population": 62104
    },
    "1256409": {
        "geoid": "1256409",
        "name": "Shyamnagar",
        "lat": 22.83333,
        "lng": 88.36667,
        "country": "IN",
        "state": "28",
        "population": 441956
    },
    "1256422": {
        "geoid": "1256422",
        "name": "Shrīrāmpur",
        "lat": 22.75278,
        "lng": 88.34222,
        "country": "IN",
        "state": "28",
        "population": 226317
    },
    "1256436": {
        "geoid": "1256436",
        "name": "Solāpur",
        "lat": 17.67152,
        "lng": 75.91044,
        "country": "IN",
        "state": "16",
        "population": 997281
    },
    "1256451": {
        "geoid": "1256451",
        "name": "Shivpuri",
        "lat": 25.42378,
        "lng": 77.66223,
        "country": "IN",
        "state": "35",
        "population": 164215
    },
    "1256475": {
        "geoid": "1256475",
        "name": "Shirpur",
        "lat": 21.34821,
        "lng": 74.88035,
        "country": "IN",
        "state": "16",
        "population": 69540
    },
    "1256515": {
        "geoid": "1256515",
        "name": "Shimoga",
        "lat": 13.93157,
        "lng": 75.56791,
        "country": "IN",
        "state": "19",
        "population": 319550
    },
    "1256523": {
        "geoid": "1256523",
        "name": "Shillong",
        "lat": 25.56892,
        "lng": 91.88313,
        "country": "IN",
        "state": "18",
        "population": 132842
    },
    "1256525": {
        "geoid": "1256525",
        "name": "Shiliguri",
        "lat": 26.71004,
        "lng": 88.42851,
        "country": "IN",
        "state": "28",
        "population": 515574
    },
    "1256529": {
        "geoid": "1256529",
        "name": "Shikohābād",
        "lat": 27.108,
        "lng": 78.58661,
        "country": "IN",
        "state": "36",
        "population": 99678
    },
    "1256569": {
        "geoid": "1256569",
        "name": "Sherkot",
        "lat": 29.32704,
        "lng": 78.57429,
        "country": "IN",
        "state": "36",
        "population": 57361
    },
    "1256593": {
        "geoid": "1256593",
        "name": "Sheopur",
        "lat": 25.66472,
        "lng": 76.69616,
        "country": "IN",
        "state": "35",
        "population": 62416
    },
    "1256620": {
        "geoid": "1256620",
        "name": "Shegaon",
        "lat": 20.7932,
        "lng": 76.69921,
        "country": "IN",
        "state": "16",
        "population": 56449
    },
    "1256639": {
        "geoid": "1256639",
        "name": "Shāntipur",
        "lat": 23.24723,
        "lng": 88.43302,
        "country": "IN",
        "state": "28",
        "population": 149983
    },
    "1256671": {
        "geoid": "1256671",
        "name": "Shāmli",
        "lat": 29.4497,
        "lng": 77.30959,
        "country": "IN",
        "state": "36",
        "population": 97966
    },
    "1256693": {
        "geoid": "1256693",
        "name": "Shājāpur",
        "lat": 23.42637,
        "lng": 76.27775,
        "country": "IN",
        "state": "35",
        "population": 53346
    },
    "1256728": {
        "geoid": "1256728",
        "name": "Shāhjānpur",
        "lat": 27.88165,
        "lng": 79.90918,
        "country": "IN",
        "state": "36",
        "population": 320434
    },
    "1256739": {
        "geoid": "1256739",
        "name": "Shahdol",
        "lat": 23.29356,
        "lng": 81.3619,
        "country": "IN",
        "state": "35",
        "population": 89289
    },
    "1256750": {
        "geoid": "1256750",
        "name": "Shāhāda",
        "lat": 21.54538,
        "lng": 74.47106,
        "country": "IN",
        "state": "16",
        "population": 58402
    },
    "1256755": {
        "geoid": "1256755",
        "name": "Shāhābād",
        "lat": 27.6431,
        "lng": 79.9402,
        "country": "IN",
        "state": "36",
        "population": 73606
    },
    "1256759": {
        "geoid": "1256759",
        "name": "Shāhābād",
        "lat": 17.1307,
        "lng": 76.94361,
        "country": "IN",
        "state": "19",
        "population": 52952
    },
    "1256826": {
        "geoid": "1256826",
        "name": "Seoni",
        "lat": 22.08503,
        "lng": 79.55037,
        "country": "IN",
        "state": "35",
        "population": 101379
    },
    "1256854": {
        "geoid": "1256854",
        "name": "Sendhwa",
        "lat": 21.68562,
        "lng": 75.09622,
        "country": "IN",
        "state": "35",
        "population": 54530
    },
    "1256913": {
        "geoid": "1256913",
        "name": "Sehore",
        "lat": 23.2,
        "lng": 77.08333,
        "country": "IN",
        "state": "35",
        "population": 99284
    },
    "1256922": {
        "geoid": "1256922",
        "name": "Secunderabad",
        "lat": 17.50427,
        "lng": 78.54263,
        "country": "IN",
        "state": "40",
        "population": 204182
    },
    "1256949": {
        "geoid": "1256949",
        "name": "Sawāi Mādhopur",
        "lat": 26.02301,
        "lng": 76.34408,
        "country": "IN",
        "state": "24",
        "population": 108612
    },
    "1257001": {
        "geoid": "1257001",
        "name": "Sattenapalle",
        "lat": 16.39381,
        "lng": 80.15221,
        "country": "IN",
        "state": "02",
        "population": 53603
    },
    "1257022": {
        "geoid": "1257022",
        "name": "Satna",
        "lat": 24.57726,
        "lng": 80.82719,
        "country": "IN",
        "state": "35",
        "population": 257778
    },
    "1257055": {
        "geoid": "1257055",
        "name": "Sātāra",
        "lat": 17.68589,
        "lng": 73.99333,
        "country": "IN",
        "state": "16",
        "population": 112793
    },
    "1257198": {
        "geoid": "1257198",
        "name": "Sardārshahr",
        "lat": 28.44062,
        "lng": 74.491,
        "country": "IN",
        "state": "24",
        "population": 86672
    },
    "1257402": {
        "geoid": "1257402",
        "name": "Sangrūr",
        "lat": 30.24506,
        "lng": 75.84488,
        "country": "IN",
        "state": "23",
        "population": 88615
    },
    "1257416": {
        "geoid": "1257416",
        "name": "Sāngli",
        "lat": 16.85438,
        "lng": 74.56417,
        "country": "IN",
        "state": "16",
        "population": 601214
    },
    "1257431": {
        "geoid": "1257431",
        "name": "Sangāreddi",
        "lat": 17.62477,
        "lng": 78.08669,
        "country": "IN",
        "state": "40",
        "population": 59199
    },
    "1257436": {
        "geoid": "1257436",
        "name": "Sangamner",
        "lat": 19.56784,
        "lng": 74.21154,
        "country": "IN",
        "state": "16",
        "population": 67309
    },
    "1257459": {
        "geoid": "1257459",
        "name": "Sandīla",
        "lat": 27.06989,
        "lng": 80.51497,
        "country": "IN",
        "state": "36",
        "population": 53182
    },
    "1257540": {
        "geoid": "1257540",
        "name": "Sambhal",
        "lat": 28.58498,
        "lng": 78.56959,
        "country": "IN",
        "state": "36",
        "population": 196109
    },
    "1257542": {
        "geoid": "1257542",
        "name": "Sambalpur",
        "lat": 21.46527,
        "lng": 83.97573,
        "country": "IN",
        "state": "21",
        "population": 162887
    },
    "1257551": {
        "geoid": "1257551",
        "name": "Samāstipur",
        "lat": 25.86222,
        "lng": 85.77953,
        "country": "IN",
        "state": "34",
        "population": 57575
    },
    "1257565": {
        "geoid": "1257565",
        "name": "Sāmalkot",
        "lat": 17.05675,
        "lng": 82.17639,
        "country": "IN",
        "state": "02",
        "population": 55097
    },
    "1257587": {
        "geoid": "1257587",
        "name": "Sālūr",
        "lat": 18.51716,
        "lng": 83.20548,
        "country": "IN",
        "state": "02",
        "population": 50206
    },
    "1257629": {
        "geoid": "1257629",
        "name": "Salem",
        "lat": 11.65117,
        "lng": 78.15867,
        "country": "IN",
        "state": "25",
        "population": 778396
    },
    "1257794": {
        "geoid": "1257794",
        "name": "Sāhibganj",
        "lat": 25.24425,
        "lng": 87.63481,
        "country": "IN",
        "state": "38",
        "population": 95890
    },
    "1257800": {
        "geoid": "1257800",
        "name": "Sahaswān",
        "lat": 28.07227,
        "lng": 78.75082,
        "country": "IN",
        "state": "36",
        "population": 60953
    },
    "1257804": {
        "geoid": "1257804",
        "name": "Saharsa",
        "lat": 25.87498,
        "lng": 86.59611,
        "country": "IN",
        "state": "34",
        "population": 145764
    },
    "1257806": {
        "geoid": "1257806",
        "name": "Sahāranpur",
        "lat": 29.9679,
        "lng": 77.54522,
        "country": "IN",
        "state": "36",
        "population": 484873
    },
    "1257845": {
        "geoid": "1257845",
        "name": "Saugor",
        "lat": 23.83877,
        "lng": 78.73874,
        "country": "IN",
        "state": "35",
        "population": 247333
    },
    "1257851": {
        "geoid": "1257851",
        "name": "Sāgar",
        "lat": 14.16498,
        "lng": 75.02901,
        "country": "IN",
        "state": "19",
        "population": 53150
    },
    "1257951": {
        "geoid": "1257951",
        "name": "Ropar",
        "lat": 30.96896,
        "lng": 76.52695,
        "country": "IN",
        "state": "23",
        "population": 52313
    },
    "1258044": {
        "geoid": "1258044",
        "name": "Roorkee",
        "lat": 29.86632,
        "lng": 77.89118,
        "country": "IN",
        "state": "39",
        "population": 103894
    },
    "1258076": {
        "geoid": "1258076",
        "name": "Rohtak",
        "lat": 28.89447,
        "lng": 76.58917,
        "country": "IN",
        "state": "10",
        "population": 317245
    },
    "1258099": {
        "geoid": "1258099",
        "name": "Roha",
        "lat": 18.43687,
        "lng": 73.11964,
        "country": "IN",
        "state": "16",
        "population": 90000
    },
    "1258109": {
        "geoid": "1258109",
        "name": "Robertsonpet",
        "lat": 12.95629,
        "lng": 78.27543,
        "country": "IN",
        "state": "19",
        "population": 135218
    },
    "1258126": {
        "geoid": "1258126",
        "name": "Rishra",
        "lat": 22.72394,
        "lng": 88.34563,
        "country": "IN",
        "state": "28",
        "population": 117014
    },
    "1258128": {
        "geoid": "1258128",
        "name": "Rishīkesh",
        "lat": 30.10778,
        "lng": 78.29255,
        "country": "IN",
        "state": "39",
        "population": 66390
    },
    "1258178": {
        "geoid": "1258178",
        "name": "Rewāri",
        "lat": 28.199,
        "lng": 76.6183,
        "country": "IN",
        "state": "10",
        "population": 112079
    },
    "1258182": {
        "geoid": "1258182",
        "name": "Rewa",
        "lat": 24.53256,
        "lng": 81.29234,
        "country": "IN",
        "state": "35",
        "population": 208461
    },
    "1258207": {
        "geoid": "1258207",
        "name": "Renukūt",
        "lat": 24.21641,
        "lng": 83.0358,
        "country": "IN",
        "state": "36",
        "population": 62413
    },
    "1258290": {
        "geoid": "1258290",
        "name": "Rāyadrug",
        "lat": 14.69971,
        "lng": 76.85241,
        "country": "IN",
        "state": "02",
        "population": 59968
    },
    "1258291": {
        "geoid": "1258291",
        "name": "Rāyachoti",
        "lat": 14.0568,
        "lng": 78.75127,
        "country": "IN",
        "state": "02",
        "population": 81433
    },
    "1258338": {
        "geoid": "1258338",
        "name": "Ratnagiri",
        "lat": 16.99154,
        "lng": 73.31022,
        "country": "IN",
        "state": "16",
        "population": 75986
    },
    "1258342": {
        "geoid": "1258342",
        "name": "Ratlām",
        "lat": 23.33033,
        "lng": 75.04032,
        "country": "IN",
        "state": "35",
        "population": 236843
    },
    "1258352": {
        "geoid": "1258352",
        "name": "Rāth",
        "lat": 25.59474,
        "lng": 79.5666,
        "country": "IN",
        "state": "36",
        "population": 61728
    },
    "1258366": {
        "geoid": "1258366",
        "name": "Ratangarh",
        "lat": 28.08137,
        "lng": 74.61854,
        "country": "IN",
        "state": "24",
        "population": 66625
    },
    "1258470": {
        "geoid": "1258470",
        "name": "Rānīganj",
        "lat": 23.6164,
        "lng": 87.13061,
        "country": "IN",
        "state": "28",
        "population": 131261
    },
    "1258474": {
        "geoid": "1258474",
        "name": "Rānībennur",
        "lat": 14.62239,
        "lng": 75.62951,
        "country": "IN",
        "state": "19",
        "population": 99105
    },
    "1258526": {
        "geoid": "1258526",
        "name": "Ranchi",
        "lat": 23.34316,
        "lng": 85.3094,
        "country": "IN",
        "state": "38",
        "population": 846454
    },
    "1258546": {
        "geoid": "1258546",
        "name": "Rānāghāt",
        "lat": 23.17623,
        "lng": 88.56667,
        "country": "IN",
        "state": "28",
        "population": 70984
    },
    "1258581": {
        "geoid": "1258581",
        "name": "Rampur Hat",
        "lat": 24.17737,
        "lng": 87.78275,
        "country": "IN",
        "state": "28",
        "population": 53468
    },
    "1258599": {
        "geoid": "1258599",
        "name": "Rāmpur",
        "lat": 28.81014,
        "lng": 79.02699,
        "country": "IN",
        "state": "36",
        "population": 296418
    },
    "1258637": {
        "geoid": "1258637",
        "name": "Rāmnagar",
        "lat": 29.3925,
        "lng": 79.1283,
        "country": "IN",
        "state": "39",
        "population": 51244
    },
    "1258662": {
        "geoid": "1258662",
        "name": "Rāmgundam",
        "lat": 18.80084,
        "lng": 79.45206,
        "country": "IN",
        "state": "40",
        "population": 452261
    },
    "1258686": {
        "geoid": "1258686",
        "name": "Rāmgarh",
        "lat": 23.63018,
        "lng": 85.51926,
        "country": "IN",
        "state": "38",
        "population": 83833
    },
    "1258740": {
        "geoid": "1258740",
        "name": "Ramanathapuram",
        "lat": 9.37158,
        "lng": 78.83077,
        "country": "IN",
        "state": "25",
        "population": 65314
    },
    "1258744": {
        "geoid": "1258744",
        "name": "Rāmanagaram",
        "lat": 12.72031,
        "lng": 77.28176,
        "country": "IN",
        "state": "19",
        "population": 93528
    },
    "1258797": {
        "geoid": "1258797",
        "name": "Rājsamand",
        "lat": 25.07145,
        "lng": 73.8798,
        "country": "IN",
        "state": "24",
        "population": 63414
    },
    "1258803": {
        "geoid": "1258803",
        "name": "Rājpura",
        "lat": 30.47856,
        "lng": 76.59284,
        "country": "IN",
        "state": "23",
        "population": 86820
    },
    "1258831": {
        "geoid": "1258831",
        "name": "Rāj-Nāndgaon",
        "lat": 21.09687,
        "lng": 81.0289,
        "country": "IN",
        "state": "37",
        "population": 150755
    },
    "1258847": {
        "geoid": "1258847",
        "name": "Rājkot",
        "lat": 22.29161,
        "lng": 70.79322,
        "country": "IN",
        "state": "09",
        "population": 1177362
    },
    "1258916": {
        "geoid": "1258916",
        "name": "Rajapalaiyam",
        "lat": 9.45296,
        "lng": 77.55335,
        "country": "IN",
        "state": "25",
        "population": 124168
    },
    "1258932": {
        "geoid": "1258932",
        "name": "Rājahmundry",
        "lat": 17.00517,
        "lng": 81.77784,
        "country": "IN",
        "state": "02",
        "population": 304804
    },
    "1258980": {
        "geoid": "1258980",
        "name": "Raipur",
        "lat": 21.23333,
        "lng": 81.63333,
        "country": "IN",
        "state": "37",
        "population": 679995
    },
    "1259005": {
        "geoid": "1259005",
        "name": "Raigarh",
        "lat": 21.89764,
        "lng": 83.3966,
        "country": "IN",
        "state": "37",
        "population": 121278
    },
    "1259009": {
        "geoid": "1259009",
        "name": "Rāiganj",
        "lat": 25.61281,
        "lng": 88.12449,
        "country": "IN",
        "state": "28",
        "population": 170252
    },
    "1259012": {
        "geoid": "1259012",
        "name": "Rāichūr",
        "lat": 16.20546,
        "lng": 77.35567,
        "country": "IN",
        "state": "19",
        "population": 225962
    },
    "1259056": {
        "geoid": "1259056",
        "name": "Rāghogarh",
        "lat": 24.44318,
        "lng": 77.19768,
        "country": "IN",
        "state": "35",
        "population": 63873
    },
    "1259064": {
        "geoid": "1259064",
        "name": "Raebareli",
        "lat": 26.2309,
        "lng": 81.23315,
        "country": "IN",
        "state": "36",
        "population": 186433
    },
    "1259083": {
        "geoid": "1259083",
        "name": "Rabkavi",
        "lat": 16.47567,
        "lng": 75.1106,
        "country": "IN",
        "state": "19",
        "population": 73835
    },
    "1259091": {
        "geoid": "1259091",
        "name": "Kollam",
        "lat": 8.88113,
        "lng": 76.58469,
        "country": "IN",
        "state": "13",
        "population": 394163
    },
    "1259124": {
        "geoid": "1259124",
        "name": "Puttūr",
        "lat": 12.75975,
        "lng": 75.20169,
        "country": "IN",
        "state": "19",
        "population": 53331
    },
    "1259154": {
        "geoid": "1259154",
        "name": "Pusad",
        "lat": 19.91274,
        "lng": 77.57838,
        "country": "IN",
        "state": "16",
        "population": 71588
    },
    "1259163": {
        "geoid": "1259163",
        "name": "Puruliya",
        "lat": 23.33062,
        "lng": 86.36303,
        "country": "IN",
        "state": "28",
        "population": 122533
    },
    "1259166": {
        "geoid": "1259166",
        "name": "Purnia",
        "lat": 25.77895,
        "lng": 87.47422,
        "country": "IN",
        "state": "34",
        "population": 198453
    },
    "1259184": {
        "geoid": "1259184",
        "name": "Puri",
        "lat": 19.79825,
        "lng": 85.82494,
        "country": "IN",
        "state": "21",
        "population": 170841
    },
    "1259229": {
        "geoid": "1259229",
        "name": "Pune",
        "lat": 18.51957,
        "lng": 73.85535,
        "country": "IN",
        "state": "16",
        "population": 2935744
    },
    "1259239": {
        "geoid": "1259239",
        "name": "Punāsa",
        "lat": 22.23507,
        "lng": 76.39335,
        "country": "IN",
        "state": "35",
        "population": 350000
    },
    "1259263": {
        "geoid": "1259263",
        "name": "Puliyangudi",
        "lat": 9.17489,
        "lng": 77.39799,
        "country": "IN",
        "state": "25",
        "population": 62494
    },
    "1259297": {
        "geoid": "1259297",
        "name": "Pudukkottai",
        "lat": 10.38128,
        "lng": 78.82141,
        "country": "IN",
        "state": "25",
        "population": 112118
    },
    "1259312": {
        "geoid": "1259312",
        "name": "Proddatūr",
        "lat": 14.7502,
        "lng": 78.54813,
        "country": "IN",
        "state": "02",
        "population": 177797
    },
    "1259385": {
        "geoid": "1259385",
        "name": "Port Blair",
        "lat": 11.66667,
        "lng": 92.75,
        "country": "IN",
        "state": "01",
        "population": 112050
    },
    "1259395": {
        "geoid": "1259395",
        "name": "Porbandar",
        "lat": 21.64219,
        "lng": 69.60929,
        "country": "IN",
        "state": "09",
        "population": 138872
    },
    "1259408": {
        "geoid": "1259408",
        "name": "Ponnūru",
        "lat": 16.06547,
        "lng": 80.55203,
        "country": "IN",
        "state": "02",
        "population": 57170
    },
    "1259411": {
        "geoid": "1259411",
        "name": "Ponnāni",
        "lat": 10.76695,
        "lng": 75.92523,
        "country": "IN",
        "state": "13",
        "population": 105512
    },
    "1259425": {
        "geoid": "1259425",
        "name": "Puducherry",
        "lat": 11.93381,
        "lng": 79.82979,
        "country": "IN",
        "state": "22",
        "population": 227411
    },
    "1259440": {
        "geoid": "1259440",
        "name": "Pollachi",
        "lat": 10.65825,
        "lng": 77.0085,
        "country": "IN",
        "state": "25",
        "population": 88214
    },
    "1259508": {
        "geoid": "1259508",
        "name": "Pithāpuram",
        "lat": 17.1168,
        "lng": 82.25284,
        "country": "IN",
        "state": "02",
        "population": 52709
    },
    "1259652": {
        "geoid": "1259652",
        "name": "Pimpri",
        "lat": 18.62292,
        "lng": 73.80696,
        "country": "IN",
        "state": "16",
        "population": 1284606
    },
    "1259680": {
        "geoid": "1259680",
        "name": "Pilkhua",
        "lat": 28.71271,
        "lng": 77.656,
        "country": "IN",
        "state": "36",
        "population": 74212
    },
    "1259686": {
        "geoid": "1259686",
        "name": "Pīlibhīt",
        "lat": 28.63124,
        "lng": 79.80436,
        "country": "IN",
        "state": "36",
        "population": 131008
    },
    "1259811": {
        "geoid": "1259811",
        "name": "Phaltan",
        "lat": 17.99113,
        "lng": 74.43177,
        "country": "IN",
        "state": "16",
        "population": 53202
    },
    "1259827": {
        "geoid": "1259827",
        "name": "Phagwāra",
        "lat": 31.22452,
        "lng": 75.77387,
        "country": "IN",
        "state": "23",
        "population": 100146
    },
    "1259841": {
        "geoid": "1259841",
        "name": "Petlād",
        "lat": 22.47681,
        "lng": 72.79995,
        "country": "IN",
        "state": "09",
        "population": 51819
    },
    "1259994": {
        "geoid": "1259994",
        "name": "Payyannūr",
        "lat": 12.0935,
        "lng": 75.20249,
        "country": "IN",
        "state": "13",
        "population": 70069
    },
    "1260040": {
        "geoid": "1260040",
        "name": "Pattukkottai",
        "lat": 10.42358,
        "lng": 79.31949,
        "country": "IN",
        "state": "25",
        "population": 67982
    },
    "1260086": {
        "geoid": "1260086",
        "name": "Patna",
        "lat": 25.59408,
        "lng": 85.13563,
        "country": "IN",
        "state": "34",
        "population": 1599920
    },
    "1260107": {
        "geoid": "1260107",
        "name": "Patiāla",
        "lat": 30.33625,
        "lng": 76.3922,
        "country": "IN",
        "state": "23",
        "population": 329224
    },
    "1260137": {
        "geoid": "1260137",
        "name": "Pathānkot",
        "lat": 32.27484,
        "lng": 75.65287,
        "country": "IN",
        "state": "23",
        "population": 174306
    },
    "1260173": {
        "geoid": "1260173",
        "name": "Pātan",
        "lat": 23.8507,
        "lng": 72.12963,
        "country": "IN",
        "state": "09",
        "population": 117863
    },
    "1260222": {
        "geoid": "1260222",
        "name": "Pārvatipuram",
        "lat": 18.78392,
        "lng": 83.42569,
        "country": "IN",
        "state": "02",
        "population": 52085
    },
    "1260290": {
        "geoid": "1260290",
        "name": "Parli Vaijnāth",
        "lat": 18.85057,
        "lng": 76.53163,
        "country": "IN",
        "state": "16",
        "population": 94863
    },
    "1260341": {
        "geoid": "1260341",
        "name": "Parbhani",
        "lat": 19.26855,
        "lng": 76.77081,
        "country": "IN",
        "state": "16",
        "population": 289629
    },
    "1260387": {
        "geoid": "1260387",
        "name": "Paramagudi",
        "lat": 9.54633,
        "lng": 78.5907,
        "country": "IN",
        "state": "25",
        "population": 85695
    },
    "1260393": {
        "geoid": "1260393",
        "name": "Parādīp Garh",
        "lat": 20.31641,
        "lng": 86.6085,
        "country": "IN",
        "state": "21",
        "population": 85868
    },
    "1260434": {
        "geoid": "1260434",
        "name": "Panvel",
        "lat": 18.98878,
        "lng": 73.11013,
        "country": "IN",
        "state": "16",
        "population": 128046
    },
    "1260448": {
        "geoid": "1260448",
        "name": "Panruti",
        "lat": 11.77662,
        "lng": 79.55269,
        "country": "IN",
        "state": "25",
        "population": 56586
    },
    "1260476": {
        "geoid": "1260476",
        "name": "Pānīpat",
        "lat": 29.38747,
        "lng": 76.96825,
        "country": "IN",
        "state": "10",
        "population": 292808
    },
    "1260482": {
        "geoid": "1260482",
        "name": "Pānihāti",
        "lat": 22.69089,
        "lng": 88.37404,
        "country": "IN",
        "state": "28",
        "population": 378705
    },
    "1260546": {
        "geoid": "1260546",
        "name": "Pandharpur",
        "lat": 17.67924,
        "lng": 75.33098,
        "country": "IN",
        "state": "16",
        "population": 95665
    },
    "1260607": {
        "geoid": "1260607",
        "name": "Panaji",
        "lat": 15.49574,
        "lng": 73.82624,
        "country": "IN",
        "state": "33",
        "population": 65586
    },
    "1260637": {
        "geoid": "1260637",
        "name": "Palwal",
        "lat": 28.14469,
        "lng": 77.32546,
        "country": "IN",
        "state": "10",
        "population": 121965
    },
    "1260667": {
        "geoid": "1260667",
        "name": "Pāloncha",
        "lat": 17.60184,
        "lng": 80.70509,
        "country": "IN",
        "state": "40",
        "population": 75224
    },
    "1260671": {
        "geoid": "1260671",
        "name": "Palani",
        "lat": 10.45034,
        "lng": 77.5209,
        "country": "IN",
        "state": "25",
        "population": 66085
    },
    "1260692": {
        "geoid": "1260692",
        "name": "Pallāvaram",
        "lat": 12.96796,
        "lng": 80.15025,
        "country": "IN",
        "state": "25",
        "population": 157145
    },
    "1260707": {
        "geoid": "1260707",
        "name": "Pālitāna",
        "lat": 21.52519,
        "lng": 71.82309,
        "country": "IN",
        "state": "09",
        "population": 55913
    },
    "1260716": {
        "geoid": "1260716",
        "name": "Pāli",
        "lat": 25.77276,
        "lng": 73.32335,
        "country": "IN",
        "state": "24",
        "population": 210103
    },
    "1260728": {
        "geoid": "1260728",
        "name": "Palakkad",
        "lat": 10.7744,
        "lng": 76.65625,
        "country": "IN",
        "state": "13",
        "population": 132728
    },
    "1260730": {
        "geoid": "1260730",
        "name": "Pālghar",
        "lat": 19.69693,
        "lng": 72.76543,
        "country": "IN",
        "state": "16",
        "population": 72335
    },
    "1260771": {
        "geoid": "1260771",
        "name": "Palāsa",
        "lat": 18.77257,
        "lng": 84.41012,
        "country": "IN",
        "state": "02",
        "population": 65833
    },
    "1260777": {
        "geoid": "1260777",
        "name": "Pālanpur",
        "lat": 24.17128,
        "lng": 72.43827,
        "country": "IN",
        "state": "09",
        "population": 123294
    },
    "1260792": {
        "geoid": "1260792",
        "name": "Pālakollu",
        "lat": 16.5167,
        "lng": 81.73,
        "country": "IN",
        "state": "02",
        "population": 57341
    },
    "1261008": {
        "geoid": "1261008",
        "name": "Ottappālam",
        "lat": 10.77094,
        "lng": 76.37844,
        "country": "IN",
        "state": "13",
        "population": 50913
    },
    "1261012": {
        "geoid": "1261012",
        "name": "Osmanabad",
        "lat": 18.18158,
        "lng": 76.03889,
        "country": "IN",
        "state": "16",
        "population": 85521
    },
    "1261039": {
        "geoid": "1261039",
        "name": "Orai",
        "lat": 25.99023,
        "lng": 79.45334,
        "country": "IN",
        "state": "36",
        "population": 158265
    },
    "1261045": {
        "geoid": "1261045",
        "name": "Ongole",
        "lat": 15.50357,
        "lng": 80.04454,
        "country": "IN",
        "state": "02",
        "population": 172872
    },
    "1261086": {
        "geoid": "1261086",
        "name": "Obra",
        "lat": 24.41863,
        "lng": 82.98797,
        "country": "IN",
        "state": "36",
        "population": 56110
    },
    "1261110": {
        "geoid": "1261110",
        "name": "Nūzvīd",
        "lat": 16.78854,
        "lng": 80.84593,
        "country": "IN",
        "state": "02",
        "population": 53391
    },
    "1261162": {
        "geoid": "1261162",
        "name": "Nowrangapur",
        "lat": 19.23114,
        "lng": 82.54826,
        "country": "IN",
        "state": "21",
        "population": 1220946
    },
    "1261181": {
        "geoid": "1261181",
        "name": "North Lakhimpur",
        "lat": 27.23517,
        "lng": 94.10357,
        "country": "IN",
        "state": "03",
        "population": 59841
    },
    "1261227": {
        "geoid": "1261227",
        "name": "Nokha",
        "lat": 27.56155,
        "lng": 73.47141,
        "country": "IN",
        "state": "24",
        "population": 55911
    },
    "1261258": {
        "geoid": "1261258",
        "name": "Nizāmābād",
        "lat": 18.67154,
        "lng": 78.0988,
        "country": "IN",
        "state": "40",
        "population": 305438
    },
    "1261288": {
        "geoid": "1261288",
        "name": "Nirmal",
        "lat": 19.09685,
        "lng": 78.34407,
        "country": "IN",
        "state": "40",
        "population": 80982
    },
    "1261309": {
        "geoid": "1261309",
        "name": "Nipāni",
        "lat": 16.399,
        "lng": 74.38285,
        "country": "IN",
        "state": "16",
        "population": 60351
    },
    "1261369": {
        "geoid": "1261369",
        "name": "Nīmbāhera",
        "lat": 24.62166,
        "lng": 74.67999,
        "country": "IN",
        "state": "24",
        "population": 58085
    },
    "1261470": {
        "geoid": "1261470",
        "name": "Neyyāttinkara",
        "lat": 8.39854,
        "lng": 77.08586,
        "country": "IN",
        "state": "13",
        "population": 88104
    },
    "1261481": {
        "geoid": "1261481",
        "name": "New Delhi",
        "lat": 28.63576,
        "lng": 77.22445,
        "country": "IN",
        "state": "07",
        "population": 317797
    },
    "1261529": {
        "geoid": "1261529",
        "name": "Nellore",
        "lat": 14.45363,
        "lng": 79.98674,
        "country": "IN",
        "state": "02",
        "population": 404158
    },
    "1261553": {
        "geoid": "1261553",
        "name": "Nedumangād",
        "lat": 8.60267,
        "lng": 77.00139,
        "country": "IN",
        "state": "13",
        "population": 58278
    },
    "1261613": {
        "geoid": "1261613",
        "name": "Nawalgarh",
        "lat": 27.85161,
        "lng": 75.27384,
        "country": "IN",
        "state": "24",
        "population": 58346
    },
    "1261631": {
        "geoid": "1261631",
        "name": "Nawāda",
        "lat": 24.8867,
        "lng": 85.54364,
        "country": "IN",
        "state": "34",
        "population": 96730
    },
    "1261641": {
        "geoid": "1261641",
        "name": "Nawābganj",
        "lat": 26.93129,
        "lng": 81.19841,
        "country": "IN",
        "state": "36",
        "population": 79246
    },
    "1261669": {
        "geoid": "1261669",
        "name": "Navadwīp",
        "lat": 23.4067,
        "lng": 88.36861,
        "country": "IN",
        "state": "28",
        "population": 111123
    },
    "1261727": {
        "geoid": "1261727",
        "name": "Nasīrābād",
        "lat": 26.30473,
        "lng": 74.73364,
        "country": "IN",
        "state": "24",
        "population": 51747
    },
    "1261731": {
        "geoid": "1261731",
        "name": "Nashik",
        "lat": 19.99727,
        "lng": 73.79096,
        "country": "IN",
        "state": "16",
        "population": 1289497
    },
    "1261739": {
        "geoid": "1261739",
        "name": "Narwāna",
        "lat": 29.59903,
        "lng": 76.11927,
        "country": "IN",
        "state": "10",
        "population": 55850
    },
    "1261772": {
        "geoid": "1261772",
        "name": "Nārnaul",
        "lat": 28.04444,
        "lng": 76.10833,
        "country": "IN",
        "state": "10",
        "population": 66049
    },
    "1261848": {
        "geoid": "1261848",
        "name": "Narasaraopet",
        "lat": 16.23488,
        "lng": 80.04927,
        "country": "IN",
        "state": "02",
        "population": 97194
    },
    "1261852": {
        "geoid": "1261852",
        "name": "Narasapur",
        "lat": 16.43425,
        "lng": 81.69845,
        "country": "IN",
        "state": "02",
        "population": 59306
    },
    "1261910": {
        "geoid": "1261910",
        "name": "Nanjangūd",
        "lat": 12.11764,
        "lng": 76.68397,
        "country": "IN",
        "state": "19",
        "population": 50243
    },
    "1261913": {
        "geoid": "1261913",
        "name": "Nāngloi Jāt",
        "lat": 28.67957,
        "lng": 77.06799,
        "country": "IN",
        "state": "07",
        "population": 194363
    },
    "1261927": {
        "geoid": "1261927",
        "name": "Nandyāl",
        "lat": 15.48879,
        "lng": 78.48648,
        "country": "IN",
        "state": "02",
        "population": 165337
    },
    "1261931": {
        "geoid": "1261931",
        "name": "Nandurbar",
        "lat": 21.36671,
        "lng": 74.24051,
        "country": "IN",
        "state": "16",
        "population": 100703
    },
    "1261977": {
        "geoid": "1261977",
        "name": "Nanded",
        "lat": 19.16023,
        "lng": 77.31497,
        "country": "IN",
        "state": "16",
        "population": 550564
    },
    "1262039": {
        "geoid": "1262039",
        "name": "Nāmakkal",
        "lat": 11.22126,
        "lng": 78.16524,
        "country": "IN",
        "state": "25",
        "population": 55997
    },
    "1262067": {
        "geoid": "1262067",
        "name": "Nalgonda",
        "lat": 17.05439,
        "lng": 79.26707,
        "country": "IN",
        "state": "40",
        "population": 121826
    },
    "1262092": {
        "geoid": "1262092",
        "name": "Naksalbāri",
        "lat": 26.6827,
        "lng": 88.22001,
        "country": "IN",
        "state": "28",
        "population": 57283
    },
    "1262109": {
        "geoid": "1262109",
        "name": "Najībābād",
        "lat": 29.61194,
        "lng": 78.34274,
        "country": "IN",
        "state": "36",
        "population": 84006
    },
    "1262131": {
        "geoid": "1262131",
        "name": "Naihāti",
        "lat": 22.89396,
        "lng": 88.41521,
        "country": "IN",
        "state": "28",
        "population": 253221
    },
    "1262180": {
        "geoid": "1262180",
        "name": "Nagpur",
        "lat": 21.14631,
        "lng": 79.08491,
        "country": "IN",
        "state": "16",
        "population": 2228018
    },
    "1262200": {
        "geoid": "1262200",
        "name": "Nagīna",
        "lat": 29.44433,
        "lng": 78.43646,
        "country": "IN",
        "state": "36",
        "population": 76593
    },
    "1262204": {
        "geoid": "1262204",
        "name": "Nāgercoil",
        "lat": 8.17731,
        "lng": 77.43437,
        "country": "IN",
        "state": "25",
        "population": 213858
    },
    "1262209": {
        "geoid": "1262209",
        "name": "Nagda",
        "lat": 23.45834,
        "lng": 75.41759,
        "country": "IN",
        "state": "35",
        "population": 103501
    },
    "1262216": {
        "geoid": "1262216",
        "name": "Nāgaur",
        "lat": 27.20201,
        "lng": 73.73394,
        "country": "IN",
        "state": "24",
        "population": 96847
    },
    "1262260": {
        "geoid": "1262260",
        "name": "Nāgappattinam",
        "lat": 10.76393,
        "lng": 79.84454,
        "country": "IN",
        "state": "25",
        "population": 94238
    },
    "1262292": {
        "geoid": "1262292",
        "name": "Nadiād",
        "lat": 22.69385,
        "lng": 72.86157,
        "country": "IN",
        "state": "09",
        "population": 202067
    },
    "1262319": {
        "geoid": "1262319",
        "name": "Nābha",
        "lat": 30.37577,
        "lng": 76.15292,
        "country": "IN",
        "state": "23",
        "population": 64640
    },
    "1262321": {
        "geoid": "1262321",
        "name": "Mysore",
        "lat": 12.29791,
        "lng": 76.63925,
        "country": "IN",
        "state": "19",
        "population": 868313
    },
    "1262330": {
        "geoid": "1262330",
        "name": "Muzaffarpur",
        "lat": 26.12259,
        "lng": 85.39055,
        "country": "IN",
        "state": "34",
        "population": 333200
    },
    "1262332": {
        "geoid": "1262332",
        "name": "Muzaffarnagar",
        "lat": 29.47091,
        "lng": 77.70332,
        "country": "IN",
        "state": "36",
        "population": 349706
    },
    "1262395": {
        "geoid": "1262395",
        "name": "Murwāra",
        "lat": 23.83776,
        "lng": 80.39405,
        "country": "IN",
        "state": "35",
        "population": 195856
    },
    "1262453": {
        "geoid": "1262453",
        "name": "Murādnagar",
        "lat": 28.78069,
        "lng": 77.49865,
        "country": "IN",
        "state": "36",
        "population": 89482
    },
    "1262463": {
        "geoid": "1262463",
        "name": "Munnar",
        "lat": 10.08873,
        "lng": 77.06269,
        "country": "IN",
        "state": "13",
        "population": 68000
    },
    "1262482": {
        "geoid": "1262482",
        "name": "Monghyr",
        "lat": 25.37459,
        "lng": 86.47455,
        "country": "IN",
        "state": "34",
        "population": 203163
    },
    "1262578": {
        "geoid": "1262578",
        "name": "Muktsar",
        "lat": 30.47426,
        "lng": 74.5166,
        "country": "IN",
        "state": "23",
        "population": 89833
    },
    "1262634": {
        "geoid": "1262634",
        "name": "Mughal Sarāi",
        "lat": 25.28307,
        "lng": 83.11968,
        "country": "IN",
        "state": "36",
        "population": 98043
    },
    "1262678": {
        "geoid": "1262678",
        "name": "Mubārakpur",
        "lat": 26.08866,
        "lng": 83.29088,
        "country": "IN",
        "state": "36",
        "population": 53263
    },
    "1262710": {
        "geoid": "1262710",
        "name": "Mothīhāri",
        "lat": 26.64862,
        "lng": 84.91656,
        "country": "IN",
        "state": "34",
        "population": 112144
    },
    "1262771": {
        "geoid": "1262771",
        "name": "Morena",
        "lat": 26.49892,
        "lng": 77.99534,
        "country": "IN",
        "state": "35",
        "population": 152004
    },
    "1262775": {
        "geoid": "1262775",
        "name": "Morbi",
        "lat": 22.81731,
        "lng": 70.8377,
        "country": "IN",
        "state": "09",
        "population": 118022
    },
    "1262801": {
        "geoid": "1262801",
        "name": "Morādābād",
        "lat": 28.83893,
        "lng": 78.77684,
        "country": "IN",
        "state": "36",
        "population": 721139
    },
    "1262852": {
        "geoid": "1262852",
        "name": "Mokameh",
        "lat": 25.39662,
        "lng": 85.9219,
        "country": "IN",
        "state": "34",
        "population": 55203
    },
    "1262951": {
        "geoid": "1262951",
        "name": "Moga",
        "lat": 30.81383,
        "lng": 75.16878,
        "country": "IN",
        "state": "23",
        "population": 130549
    },
    "1262958": {
        "geoid": "1262958",
        "name": "Modāsa",
        "lat": 23.46253,
        "lng": 73.29857,
        "country": "IN",
        "state": "09",
        "population": 58970
    },
    "1262995": {
        "geoid": "1262995",
        "name": "Mirzāpur",
        "lat": 25.1449,
        "lng": 82.56534,
        "country": "IN",
        "state": "36",
        "population": 220029
    },
    "1263012": {
        "geoid": "1263012",
        "name": "Miriālgūda",
        "lat": 16.8722,
        "lng": 79.56247,
        "country": "IN",
        "state": "40",
        "population": 101234
    },
    "1263101": {
        "geoid": "1263101",
        "name": "Mettur",
        "lat": 11.78796,
        "lng": 77.8008,
        "country": "IN",
        "state": "25",
        "population": 56743
    },
    "1263103": {
        "geoid": "1263103",
        "name": "Mettupalayam",
        "lat": 11.29971,
        "lng": 76.93485,
        "country": "IN",
        "state": "25",
        "population": 66944
    },
    "1263214": {
        "geoid": "1263214",
        "name": "Meerut",
        "lat": 28.98002,
        "lng": 77.70636,
        "country": "IN",
        "state": "36",
        "population": 1223184
    },
    "1263220": {
        "geoid": "1263220",
        "name": "Medinīpur",
        "lat": 22.42114,
        "lng": 87.32257,
        "country": "IN",
        "state": "28",
        "population": 153349
    },
    "1263247": {
        "geoid": "1263247",
        "name": "Mayiladuthurai",
        "lat": 11.10354,
        "lng": 79.655,
        "country": "IN",
        "state": "25",
        "population": 86660
    },
    "1263275": {
        "geoid": "1263275",
        "name": "Mawāna",
        "lat": 29.10288,
        "lng": 77.92199,
        "country": "IN",
        "state": "36",
        "population": 76973
    },
    "1263311": {
        "geoid": "1263311",
        "name": "Mau",
        "lat": 25.94167,
        "lng": 83.56111,
        "country": "IN",
        "state": "36",
        "population": 246050
    },
    "1263364": {
        "geoid": "1263364",
        "name": "Mathura",
        "lat": 27.5035,
        "lng": 77.67215,
        "country": "IN",
        "state": "36",
        "population": 330511
    },
    "1263427": {
        "geoid": "1263427",
        "name": "Masaurhi Buzurg",
        "lat": 25.35417,
        "lng": 85.03195,
        "country": "IN",
        "state": "34",
        "population": 53440
    },
    "1263494": {
        "geoid": "1263494",
        "name": "Marmagao",
        "lat": 15.40927,
        "lng": 73.78869,
        "country": "IN",
        "state": "33",
        "population": 102345
    },
    "1263504": {
        "geoid": "1263504",
        "name": "Mārkāpur",
        "lat": 15.74041,
        "lng": 79.27057,
        "country": "IN",
        "state": "02",
        "population": 63982
    },
    "1263622": {
        "geoid": "1263622",
        "name": "Mānsa",
        "lat": 29.98844,
        "lng": 75.40167,
        "country": "IN",
        "state": "23",
        "population": 80018
    },
    "1263659": {
        "geoid": "1263659",
        "name": "Mannargudi",
        "lat": 10.66626,
        "lng": 79.45064,
        "country": "IN",
        "state": "25",
        "population": 63148
    },
    "1263661": {
        "geoid": "1263661",
        "name": "Mannārakkāt",
        "lat": 10.9914,
        "lng": 76.4596,
        "country": "IN",
        "state": "13",
        "population": 50921
    },
    "1263664": {
        "geoid": "1263664",
        "name": "Manmād",
        "lat": 20.25334,
        "lng": 74.43755,
        "country": "IN",
        "state": "16",
        "population": 76722
    },
    "1263694": {
        "geoid": "1263694",
        "name": "Manjeri",
        "lat": 11.1172,
        "lng": 76.11987,
        "country": "IN",
        "state": "13",
        "population": 89201
    },
    "1263752": {
        "geoid": "1263752",
        "name": "Māngrol",
        "lat": 21.12268,
        "lng": 70.11484,
        "country": "IN",
        "state": "09",
        "population": 58989
    },
    "1263780": {
        "geoid": "1263780",
        "name": "Mangalore",
        "lat": 12.91723,
        "lng": 74.85603,
        "country": "IN",
        "state": "19",
        "population": 417387
    },
    "1263797": {
        "geoid": "1263797",
        "name": "Mangalagiri",
        "lat": 16.43083,
        "lng": 80.56815,
        "country": "IN",
        "state": "02",
        "population": 59391
    },
    "1263814": {
        "geoid": "1263814",
        "name": "Mandya",
        "lat": 12.5223,
        "lng": 76.89746,
        "country": "IN",
        "state": "19",
        "population": 134845
    },
    "1263833": {
        "geoid": "1263833",
        "name": "Māndu",
        "lat": 22.36667,
        "lng": 75.38333,
        "country": "IN",
        "state": "35",
        "population": 300000
    },
    "1263834": {
        "geoid": "1263834",
        "name": "Mandsaur",
        "lat": 24.07184,
        "lng": 75.06986,
        "country": "IN",
        "state": "35",
        "population": 124988
    },
    "1263936": {
        "geoid": "1263936",
        "name": "Mancherāl",
        "lat": 18.87074,
        "lng": 79.42863,
        "country": "IN",
        "state": "40",
        "population": 77998
    },
    "1264071": {
        "geoid": "1264071",
        "name": "Malkāpur",
        "lat": 20.88555,
        "lng": 76.19932,
        "country": "IN",
        "state": "16",
        "population": 64812
    },
    "1264111": {
        "geoid": "1264111",
        "name": "Māler Kotla",
        "lat": 30.5309,
        "lng": 75.87949,
        "country": "IN",
        "state": "23",
        "population": 113840
    },
    "1264115": {
        "geoid": "1264115",
        "name": "Mālegaon",
        "lat": 20.54966,
        "lng": 74.53462,
        "country": "IN",
        "state": "16",
        "population": 435362
    },
    "1264138": {
        "geoid": "1264138",
        "name": "Malaut",
        "lat": 30.21121,
        "lng": 74.4818,
        "country": "IN",
        "state": "23",
        "population": 76616
    },
    "1264154": {
        "geoid": "1264154",
        "name": "Malappuram",
        "lat": 11.04019,
        "lng": 76.08237,
        "country": "IN",
        "state": "13",
        "population": 61743
    },
    "1264206": {
        "geoid": "1264206",
        "name": "Makrāna",
        "lat": 27.04361,
        "lng": 74.72445,
        "country": "IN",
        "state": "24",
        "population": 93904
    },
    "1264292": {
        "geoid": "1264292",
        "name": "Mainpuri",
        "lat": 27.22857,
        "lng": 79.02882,
        "country": "IN",
        "state": "36",
        "population": 94619
    },
    "1264359": {
        "geoid": "1264359",
        "name": "Mahobā",
        "lat": 25.2905,
        "lng": 79.87533,
        "country": "IN",
        "state": "36",
        "population": 89170
    },
    "1264407": {
        "geoid": "1264407",
        "name": "Mahbūbnagar",
        "lat": 16.74385,
        "lng": 77.98597,
        "country": "IN",
        "state": "40",
        "population": 136135
    },
    "1264414": {
        "geoid": "1264414",
        "name": "Mahāsamund",
        "lat": 21.10743,
        "lng": 82.0948,
        "country": "IN",
        "state": "37",
        "population": 50441
    },
    "1264521": {
        "geoid": "1264521",
        "name": "Madurai",
        "lat": 9.91735,
        "lng": 78.11962,
        "country": "IN",
        "state": "25",
        "population": 909908
    },
    "1264527": {
        "geoid": "1264527",
        "name": "Chennai",
        "lat": 13.08784,
        "lng": 80.27847,
        "country": "IN",
        "state": "25",
        "population": 4328063
    },
    "1264543": {
        "geoid": "1264543",
        "name": "Madhyamgram",
        "lat": 22.68944,
        "lng": 88.44594,
        "country": "IN",
        "state": "28",
        "population": 161126
    },
    "1264551": {
        "geoid": "1264551",
        "name": "Madhupur",
        "lat": 24.27419,
        "lng": 86.63929,
        "country": "IN",
        "state": "38",
        "population": 50671
    },
    "1264555": {
        "geoid": "1264555",
        "name": "Madhubani",
        "lat": 26.35367,
        "lng": 86.07169,
        "country": "IN",
        "state": "34",
        "population": 71582
    },
    "1264570": {
        "geoid": "1264570",
        "name": "Madhipura",
        "lat": 25.92127,
        "lng": 86.79271,
        "country": "IN",
        "state": "34",
        "population": 50570
    },
    "1264588": {
        "geoid": "1264588",
        "name": "Madgaon",
        "lat": 15.27501,
        "lng": 73.95786,
        "country": "IN",
        "state": "33",
        "population": 86818
    },
    "1264621": {
        "geoid": "1264621",
        "name": "Madanapalle",
        "lat": 13.5503,
        "lng": 78.50288,
        "country": "IN",
        "state": "02",
        "population": 108593
    },
    "1264637": {
        "geoid": "1264637",
        "name": "Machilīpatnam",
        "lat": 16.18747,
        "lng": 81.13888,
        "country": "IN",
        "state": "02",
        "population": 192827
    },
    "1264647": {
        "geoid": "1264647",
        "name": "Mācherla",
        "lat": 16.47635,
        "lng": 79.43533,
        "country": "IN",
        "state": "02",
        "population": 51039
    },
    "1264688": {
        "geoid": "1264688",
        "name": "Lunglei",
        "lat": 22.89247,
        "lng": 92.74218,
        "country": "IN",
        "state": "31",
        "population": 52728
    },
    "1264728": {
        "geoid": "1264728",
        "name": "Ludhiāna",
        "lat": 30.91204,
        "lng": 75.85379,
        "country": "IN",
        "state": "23",
        "population": 1545368
    },
    "1264733": {
        "geoid": "1264733",
        "name": "Lucknow",
        "lat": 26.83928,
        "lng": 80.92313,
        "country": "IN",
        "state": "36",
        "population": 2472011
    },
    "1264735": {
        "geoid": "1264735",
        "name": "Luckeesarai",
        "lat": 25.1765,
        "lng": 86.0947,
        "country": "IN",
        "state": "34",
        "population": 89500
    },
    "1264773": {
        "geoid": "1264773",
        "name": "Loni",
        "lat": 28.75143,
        "lng": 77.29023,
        "country": "IN",
        "state": "36",
        "population": 164810
    },
    "1264793": {
        "geoid": "1264793",
        "name": "Lonavla",
        "lat": 18.75275,
        "lng": 73.40575,
        "country": "IN",
        "state": "16",
        "population": 58562
    },
    "1264839": {
        "geoid": "1264839",
        "name": "Lohārdaga",
        "lat": 23.43313,
        "lng": 84.67982,
        "country": "IN",
        "state": "38",
        "population": 53032
    },
    "1265014": {
        "geoid": "1265014",
        "name": "Latur",
        "lat": 18.39721,
        "lng": 76.56784,
        "country": "IN",
        "state": "16",
        "population": 348967
    },
    "1265157": {
        "geoid": "1265157",
        "name": "Lalitpur",
        "lat": 24.69007,
        "lng": 78.41915,
        "country": "IN",
        "state": "36",
        "population": 126475
    },
    "1265242": {
        "geoid": "1265242",
        "name": "Lakhīmpur",
        "lat": 27.94822,
        "lng": 80.77935,
        "country": "IN",
        "state": "36",
        "population": 140223
    },
    "1265310": {
        "geoid": "1265310",
        "name": "Lāharpur",
        "lat": 27.70827,
        "lng": 80.90256,
        "country": "IN",
        "state": "36",
        "population": 55911
    },
    "1265331": {
        "geoid": "1265331",
        "name": "Lādnūn",
        "lat": 27.65312,
        "lng": 74.39993,
        "country": "IN",
        "state": "24",
        "population": 60490
    },
    "1265579": {
        "geoid": "1265579",
        "name": "Kunnamkulam",
        "lat": 10.6484,
        "lng": 76.07063,
        "country": "IN",
        "state": "13",
        "population": 63903
    },
    "1265605": {
        "geoid": "1265605",
        "name": "Kundla",
        "lat": 21.34222,
        "lng": 71.30633,
        "country": "IN",
        "state": "09",
        "population": 76809
    },
    "1265683": {
        "geoid": "1265683",
        "name": "Kumbakonam",
        "lat": 10.96209,
        "lng": 79.39124,
        "country": "IN",
        "state": "25",
        "population": 139264
    },
    "1265711": {
        "geoid": "1265711",
        "name": "Kulti",
        "lat": 23.73166,
        "lng": 86.84372,
        "country": "IN",
        "state": "28",
        "population": 305405
    },
    "1265767": {
        "geoid": "1265767",
        "name": "Kūkatpalli",
        "lat": 17.48486,
        "lng": 78.41376,
        "country": "IN",
        "state": "40",
        "population": 341709
    },
    "1265828": {
        "geoid": "1265828",
        "name": "Kuchāman",
        "lat": 27.14745,
        "lng": 74.85655,
        "country": "IN",
        "state": "24",
        "population": 56725
    },
    "1265859": {
        "geoid": "1265859",
        "name": "Krishnanagar",
        "lat": 23.40576,
        "lng": 88.49073,
        "country": "IN",
        "state": "28",
        "population": 145926
    },
    "1265863": {
        "geoid": "1265863",
        "name": "Krishnagiri",
        "lat": 12.51921,
        "lng": 78.21382,
        "country": "IN",
        "state": "25",
        "population": 66419
    },
    "1265873": {
        "geoid": "1265873",
        "name": "Kozhikode",
        "lat": 11.24802,
        "lng": 75.7804,
        "country": "IN",
        "state": "13",
        "population": 439922
    },
    "1265891": {
        "geoid": "1265891",
        "name": "Kovilpatti",
        "lat": 9.17167,
        "lng": 77.86989,
        "country": "IN",
        "state": "25",
        "population": 90296
    },
    "1265911": {
        "geoid": "1265911",
        "name": "Kottayam",
        "lat": 9.58692,
        "lng": 76.52132,
        "country": "IN",
        "state": "13",
        "population": 59437
    },
    "1265938": {
        "geoid": "1265938",
        "name": "Kottagūdem",
        "lat": 17.55106,
        "lng": 80.61779,
        "country": "IN",
        "state": "40",
        "population": 79247
    },
    "1266049": {
        "geoid": "1266049",
        "name": "Kota",
        "lat": 25.18254,
        "lng": 75.83907,
        "country": "IN",
        "state": "24",
        "population": 763088
    },
    "1266073": {
        "geoid": "1266073",
        "name": "Kosi",
        "lat": 27.79449,
        "lng": 77.4368,
        "country": "IN",
        "state": "36",
        "population": 52492
    },
    "1266122": {
        "geoid": "1266122",
        "name": "Korba",
        "lat": 22.3458,
        "lng": 82.69633,
        "country": "IN",
        "state": "37",
        "population": 419146
    },
    "1266124": {
        "geoid": "1266124",
        "name": "Koratla",
        "lat": 18.82154,
        "lng": 78.71186,
        "country": "IN",
        "state": "40",
        "population": 60231
    },
    "1266154": {
        "geoid": "1266154",
        "name": "Koppal",
        "lat": 15.34522,
        "lng": 76.15478,
        "country": "IN",
        "state": "19",
        "population": 60868
    },
    "1266162": {
        "geoid": "1266162",
        "name": "Kopargaon",
        "lat": 19.88239,
        "lng": 74.47605,
        "country": "IN",
        "state": "16",
        "population": 65116
    },
    "1266179": {
        "geoid": "1266179",
        "name": "Konnagar",
        "lat": 22.70508,
        "lng": 88.34446,
        "country": "IN",
        "state": "28",
        "population": 76082
    },
    "1266217": {
        "geoid": "1266217",
        "name": "Konch",
        "lat": 25.99451,
        "lng": 79.15127,
        "country": "IN",
        "state": "36",
        "population": 52773
    },
    "1266267": {
        "geoid": "1266267",
        "name": "Kollegāl",
        "lat": 12.1569,
        "lng": 77.10693,
        "country": "IN",
        "state": "19",
        "population": 56497
    },
    "1266285": {
        "geoid": "1266285",
        "name": "Kolhāpur",
        "lat": 16.69563,
        "lng": 74.23167,
        "country": "IN",
        "state": "16",
        "population": 516142
    },
    "1266305": {
        "geoid": "1266305",
        "name": "Kolār",
        "lat": 13.13671,
        "lng": 78.12917,
        "country": "IN",
        "state": "19",
        "population": 126441
    },
    "1266366": {
        "geoid": "1266366",
        "name": "Kohima",
        "lat": 25.67467,
        "lng": 94.11099,
        "country": "IN",
        "state": "20",
        "population": 92113
    },
    "1266416": {
        "geoid": "1266416",
        "name": "Kodār",
        "lat": 16.9985,
        "lng": 79.9656,
        "country": "IN",
        "state": "40",
        "population": 59170
    },
    "1266436": {
        "geoid": "1266436",
        "name": "Koch Bihār",
        "lat": 26.32539,
        "lng": 89.44508,
        "country": "IN",
        "state": "28",
        "population": 78737
    },
    "1266486": {
        "geoid": "1266486",
        "name": "Kishangarh",
        "lat": 26.5741,
        "lng": 74.86685,
        "country": "IN",
        "state": "24",
        "population": 131749
    },
    "1266489": {
        "geoid": "1266489",
        "name": "Kishanganj",
        "lat": 26.10224,
        "lng": 87.95534,
        "country": "IN",
        "state": "34",
        "population": 94807
    },
    "1266509": {
        "geoid": "1266509",
        "name": "Kīratpur",
        "lat": 29.50671,
        "lng": 78.20613,
        "country": "IN",
        "state": "36",
        "population": 60223
    },
    "1266607": {
        "geoid": "1266607",
        "name": "Khurja",
        "lat": 28.25382,
        "lng": 77.85535,
        "country": "IN",
        "state": "36",
        "population": 105909
    },
    "1266666": {
        "geoid": "1266666",
        "name": "Khopoli",
        "lat": 18.78562,
        "lng": 73.34589,
        "country": "IN",
        "state": "16",
        "population": 64460
    },
    "1266849": {
        "geoid": "1266849",
        "name": "Khatauli",
        "lat": 29.27844,
        "lng": 77.73302,
        "country": "IN",
        "state": "36",
        "population": 64731
    },
    "1266928": {
        "geoid": "1266928",
        "name": "Khargone",
        "lat": 21.82292,
        "lng": 75.61394,
        "country": "IN",
        "state": "35",
        "population": 94985
    },
    "1266945": {
        "geoid": "1266945",
        "name": "Khardah",
        "lat": 22.71861,
        "lng": 88.37806,
        "country": "IN",
        "state": "28",
        "population": 128346
    },
    "1266976": {
        "geoid": "1266976",
        "name": "Kharagpur",
        "lat": 22.33971,
        "lng": 87.32501,
        "country": "IN",
        "state": "28",
        "population": 219665
    },
    "1267016": {
        "geoid": "1267016",
        "name": "Khanna",
        "lat": 30.70547,
        "lng": 76.22196,
        "country": "IN",
        "state": "23",
        "population": 117137
    },
    "1267031": {
        "geoid": "1267031",
        "name": "Khandwa",
        "lat": 21.82427,
        "lng": 76.35086,
        "country": "IN",
        "state": "35",
        "population": 182841
    },
    "1267076": {
        "geoid": "1267076",
        "name": "Khammam",
        "lat": 17.24767,
        "lng": 80.14368,
        "country": "IN",
        "state": "40",
        "population": 170503
    },
    "1267084": {
        "geoid": "1267084",
        "name": "Khāmgaon",
        "lat": 20.70738,
        "lng": 76.56827,
        "country": "IN",
        "state": "16",
        "population": 94604
    },
    "1267090": {
        "geoid": "1267090",
        "name": "Khambhāt",
        "lat": 22.31744,
        "lng": 72.61916,
        "country": "IN",
        "state": "09",
        "population": 81328
    },
    "1267187": {
        "geoid": "1267187",
        "name": "Khagaul",
        "lat": 25.57898,
        "lng": 85.04564,
        "country": "IN",
        "state": "34",
        "population": 51577
    },
    "1267195": {
        "geoid": "1267195",
        "name": "Khadki",
        "lat": 18.5635,
        "lng": 73.85205,
        "country": "IN",
        "state": "16",
        "population": 75654
    },
    "1267227": {
        "geoid": "1267227",
        "name": "Keshod",
        "lat": 21.30328,
        "lng": 70.24861,
        "country": "IN",
        "state": "09",
        "population": 68518
    },
    "1267360": {
        "geoid": "1267360",
        "name": "Kāyankulam",
        "lat": 9.17243,
        "lng": 76.50017,
        "country": "IN",
        "state": "13",
        "population": 64183
    },
    "1267394": {
        "geoid": "1267394",
        "name": "Kāvali",
        "lat": 14.9163,
        "lng": 79.99449,
        "country": "IN",
        "state": "02",
        "population": 83352
    },
    "1267439": {
        "geoid": "1267439",
        "name": "Kātrās",
        "lat": 23.79752,
        "lng": 86.29834,
        "country": "IN",
        "state": "38",
        "population": 57349
    },
    "1267457": {
        "geoid": "1267457",
        "name": "Kātoya",
        "lat": 23.64558,
        "lng": 88.13258,
        "country": "IN",
        "state": "28",
        "population": 78408
    },
    "1267480": {
        "geoid": "1267480",
        "name": "Katihar",
        "lat": 25.53852,
        "lng": 87.57044,
        "country": "IN",
        "state": "34",
        "population": 192555
    },
    "1267579": {
        "geoid": "1267579",
        "name": "Kashipur",
        "lat": 29.21399,
        "lng": 78.95693,
        "country": "IN",
        "state": "39",
        "population": 103138
    },
    "1267588": {
        "geoid": "1267588",
        "name": "Kāsganj",
        "lat": 27.80882,
        "lng": 78.64579,
        "country": "IN",
        "state": "36",
        "population": 99462
    },
    "1267616": {
        "geoid": "1267616",
        "name": "Kāsaragod",
        "lat": 12.49838,
        "lng": 74.98959,
        "country": "IN",
        "state": "13",
        "population": 53309
    },
    "1267635": {
        "geoid": "1267635",
        "name": "Karwar",
        "lat": 14.81361,
        "lng": 74.12972,
        "country": "IN",
        "state": "19",
        "population": 64457
    },
    "1267648": {
        "geoid": "1267648",
        "name": "Karur",
        "lat": 10.95771,
        "lng": 78.08095,
        "country": "IN",
        "state": "25",
        "population": 76915
    },
    "1267696": {
        "geoid": "1267696",
        "name": "Karol Bāgh",
        "lat": 28.65136,
        "lng": 77.19072,
        "country": "IN",
        "state": "07",
        "population": 505241
    },
    "1267708": {
        "geoid": "1267708",
        "name": "Karnāl",
        "lat": 29.69197,
        "lng": 76.98448,
        "country": "IN",
        "state": "10",
        "population": 225049
    },
    "1267755": {
        "geoid": "1267755",
        "name": "Karīmnagar",
        "lat": 18.43915,
        "lng": 79.12856,
        "country": "IN",
        "state": "40",
        "population": 228745
    },
    "1267758": {
        "geoid": "1267758",
        "name": "Karīmganj",
        "lat": 24.86919,
        "lng": 92.35543,
        "country": "IN",
        "state": "03",
        "population": 55290
    },
    "1267819": {
        "geoid": "1267819",
        "name": "Karauli",
        "lat": 26.49831,
        "lng": 77.02755,
        "country": "IN",
        "state": "24",
        "population": 73717
    },
    "1267853": {
        "geoid": "1267853",
        "name": "Kāranja",
        "lat": 20.48273,
        "lng": 77.48857,
        "country": "IN",
        "state": "16",
        "population": 64734
    },
    "1267885": {
        "geoid": "1267885",
        "name": "Kāraikkudi",
        "lat": 10.0661,
        "lng": 78.76787,
        "country": "IN",
        "state": "25",
        "population": 91908
    },
    "1267887": {
        "geoid": "1267887",
        "name": "Kāraikāl",
        "lat": 10.91667,
        "lng": 79.83333,
        "country": "IN",
        "state": "22",
        "population": 79653
    },
    "1267904": {
        "geoid": "1267904",
        "name": "Karād",
        "lat": 17.28937,
        "lng": 74.18183,
        "country": "IN",
        "state": "16",
        "population": 55663
    },
    "1267911": {
        "geoid": "1267911",
        "name": "Kapūrthala",
        "lat": 31.38011,
        "lng": 75.38105,
        "country": "IN",
        "state": "23",
        "population": 92667
    },
    "1267995": {
        "geoid": "1267995",
        "name": "Kanpur",
        "lat": 26.46523,
        "lng": 80.34975,
        "country": "IN",
        "state": "36",
        "population": 2823249
    },
    "1268011": {
        "geoid": "1268011",
        "name": "Kannauj",
        "lat": 27.05524,
        "lng": 79.9188,
        "country": "IN",
        "state": "36",
        "population": 76714
    },
    "1268015": {
        "geoid": "1268015",
        "name": "Kānnangād",
        "lat": 12.30814,
        "lng": 75.10632,
        "country": "IN",
        "state": "13",
        "population": 68450
    },
    "1268111": {
        "geoid": "1268111",
        "name": "Kandukūr",
        "lat": 15.21542,
        "lng": 79.9039,
        "country": "IN",
        "state": "02",
        "population": 53662
    },
    "1268135": {
        "geoid": "1268135",
        "name": "Kāndi",
        "lat": 23.95946,
        "lng": 88.04018,
        "country": "IN",
        "state": "28",
        "population": 54848
    },
    "1268159": {
        "geoid": "1268159",
        "name": "Kānchipuram",
        "lat": 12.83515,
        "lng": 79.70006,
        "country": "IN",
        "state": "25",
        "population": 155029
    },
    "1268189": {
        "geoid": "1268189",
        "name": "Kanakapura",
        "lat": 12.54614,
        "lng": 77.42099,
        "country": "IN",
        "state": "19",
        "population": 50752
    },
    "1268205": {
        "geoid": "1268205",
        "name": "Kāmthi",
        "lat": 21.21615,
        "lng": 79.1973,
        "country": "IN",
        "state": "16",
        "population": 86213
    },
    "1268246": {
        "geoid": "1268246",
        "name": "Cumbum",
        "lat": 9.73647,
        "lng": 77.2847,
        "country": "IN",
        "state": "25",
        "population": 60828
    },
    "1268257": {
        "geoid": "1268257",
        "name": "Kāmārhāti",
        "lat": 22.67111,
        "lng": 88.37472,
        "country": "IN",
        "state": "28",
        "population": 332965
    },
    "1268259": {
        "geoid": "1268259",
        "name": "Kāmāreddi",
        "lat": 18.32001,
        "lng": 78.34177,
        "country": "IN",
        "state": "40",
        "population": 71042
    },
    "1268293": {
        "geoid": "1268293",
        "name": "Kalyani",
        "lat": 22.98333,
        "lng": 88.48333,
        "country": "IN",
        "state": "28",
        "population": 93184
    },
    "1268295": {
        "geoid": "1268295",
        "name": "Kalyān",
        "lat": 19.2437,
        "lng": 73.13554,
        "country": "IN",
        "state": "16",
        "population": 1262255
    },
    "1268341": {
        "geoid": "1268341",
        "name": "Kālna",
        "lat": 23.21944,
        "lng": 88.36295,
        "country": "IN",
        "state": "28",
        "population": 53964
    },
    "1268383": {
        "geoid": "1268383",
        "name": "Kāliyāganj",
        "lat": 25.63442,
        "lng": 88.32665,
        "country": "IN",
        "state": "28",
        "population": 51748
    },
    "1268561": {
        "geoid": "1268561",
        "name": "Kākināda",
        "lat": 16.96036,
        "lng": 82.23809,
        "country": "IN",
        "state": "02",
        "population": 292923
    },
    "1268593": {
        "geoid": "1268593",
        "name": "Kaithal",
        "lat": 29.80153,
        "lng": 76.39959,
        "country": "IN",
        "state": "10",
        "population": 140604
    },
    "1268601": {
        "geoid": "1268601",
        "name": "Kairāna",
        "lat": 29.39541,
        "lng": 77.2054,
        "country": "IN",
        "state": "36",
        "population": 80432
    },
    "1268673": {
        "geoid": "1268673",
        "name": "Kadiri",
        "lat": 14.11252,
        "lng": 78.16027,
        "country": "IN",
        "state": "02",
        "population": 81498
    },
    "1268680": {
        "geoid": "1268680",
        "name": "Kadi",
        "lat": 23.29908,
        "lng": 72.33362,
        "country": "IN",
        "state": "09",
        "population": 58066
    },
    "1268707": {
        "geoid": "1268707",
        "name": "Kadayanallur",
        "lat": 9.07277,
        "lng": 77.34152,
        "country": "IN",
        "state": "25",
        "population": 77772
    },
    "1268715": {
        "geoid": "1268715",
        "name": "Kānchrāpāra",
        "lat": 22.95998,
        "lng": 88.42849,
        "country": "IN",
        "state": "28",
        "population": 136954
    },
    "1268773": {
        "geoid": "1268773",
        "name": "Jūnāgadh",
        "lat": 21.51966,
        "lng": 70.45981,
        "country": "IN",
        "state": "09",
        "population": 184447
    },
    "1268775": {
        "geoid": "1268775",
        "name": "Jumri Tilaiyā",
        "lat": 24.4349,
        "lng": 85.52951,
        "country": "IN",
        "state": "38",
        "population": 76341
    },
    "1268782": {
        "geoid": "1268782",
        "name": "Jalandhar",
        "lat": 31.32556,
        "lng": 75.57917,
        "country": "IN",
        "state": "23",
        "population": 785178
    },
    "1268820": {
        "geoid": "1268820",
        "name": "Jorhāt",
        "lat": 26.75751,
        "lng": 94.20306,
        "country": "IN",
        "state": "03",
        "population": 69033
    },
    "1268865": {
        "geoid": "1268865",
        "name": "Jodhpur",
        "lat": 26.26841,
        "lng": 73.00594,
        "country": "IN",
        "state": "24",
        "population": 921476
    },
    "1268907": {
        "geoid": "1268907",
        "name": "Jīnd",
        "lat": 29.31577,
        "lng": 76.31502,
        "country": "IN",
        "state": "10",
        "population": 161260
    },
    "1268936": {
        "geoid": "1268936",
        "name": "Jhunjhunūn",
        "lat": 28.12559,
        "lng": 75.39797,
        "country": "IN",
        "state": "24",
        "population": 113193
    },
    "1268977": {
        "geoid": "1268977",
        "name": "Jhārsuguda",
        "lat": 21.86159,
        "lng": 84.01788,
        "country": "IN",
        "state": "21",
        "population": 79492
    },
    "1268988": {
        "geoid": "1268988",
        "name": "Jharia",
        "lat": 23.74079,
        "lng": 86.41456,
        "country": "IN",
        "state": "38",
        "population": 86938
    },
    "1268990": {
        "geoid": "1268990",
        "name": "Jhārgrām",
        "lat": 22.45384,
        "lng": 86.99497,
        "country": "IN",
        "state": "28",
        "population": 57796
    },
    "1269006": {
        "geoid": "1269006",
        "name": "Jhānsi",
        "lat": 25.45887,
        "lng": 78.57994,
        "country": "IN",
        "state": "36",
        "population": 412927
    },
    "1269027": {
        "geoid": "1269027",
        "name": "Jhālāwār",
        "lat": 24.59633,
        "lng": 76.16499,
        "country": "IN",
        "state": "24",
        "population": 51884
    },
    "1269065": {
        "geoid": "1269065",
        "name": "Jetpur",
        "lat": 21.75482,
        "lng": 70.62347,
        "country": "IN",
        "state": "09",
        "population": 118068
    },
    "1269092": {
        "geoid": "1269092",
        "name": "Jeypore",
        "lat": 18.8563,
        "lng": 82.5716,
        "country": "IN",
        "state": "21",
        "population": 80837
    },
    "1269135": {
        "geoid": "1269135",
        "name": "Jaunpur",
        "lat": 25.75356,
        "lng": 82.68689,
        "country": "IN",
        "state": "36",
        "population": 169572
    },
    "1269154": {
        "geoid": "1269154",
        "name": "Jatani",
        "lat": 20.15975,
        "lng": 85.70742,
        "country": "IN",
        "state": "21",
        "population": 56003
    },
    "1269217": {
        "geoid": "1269217",
        "name": "Jaorā",
        "lat": 23.63783,
        "lng": 75.12711,
        "country": "IN",
        "state": "35",
        "population": 67203
    },
    "1269247": {
        "geoid": "1269247",
        "name": "Jangipur",
        "lat": 24.47001,
        "lng": 88.07659,
        "country": "IN",
        "state": "28",
        "population": 82548
    },
    "1269280": {
        "geoid": "1269280",
        "name": "Jāmuria",
        "lat": 23.70468,
        "lng": 87.07872,
        "country": "IN",
        "state": "28",
        "population": 160242
    },
    "1269291": {
        "geoid": "1269291",
        "name": "Jamūī",
        "lat": 24.92606,
        "lng": 86.22531,
        "country": "IN",
        "state": "34",
        "population": 78181
    },
    "1269300": {
        "geoid": "1269300",
        "name": "Jamshedpur",
        "lat": 22.80278,
        "lng": 86.18545,
        "country": "IN",
        "state": "38",
        "population": 616338
    },
    "1269317": {
        "geoid": "1269317",
        "name": "Jāmnagar",
        "lat": 22.47292,
        "lng": 70.06673,
        "country": "IN",
        "state": "09",
        "population": 492056
    },
    "1269321": {
        "geoid": "1269321",
        "name": "Jammu",
        "lat": 32.73569,
        "lng": 74.86911,
        "country": "IN",
        "state": "12",
        "population": 465567
    },
    "1269328": {
        "geoid": "1269328",
        "name": "Jamkhandi",
        "lat": 16.50461,
        "lng": 75.29146,
        "country": "IN",
        "state": "19",
        "population": 61690
    },