{
    "89570": {
        "geoid": "89570",
        "name": "Zaxo",
        "lat": 37.14871,
        "lng": 42.68591,
        "country": "IQ",
        "state": "08",
        "population": 95052
    },
    "89824": {
        "geoid": "89824",
        "name": "Umm Qaşr",
        "lat": 30.0362,
        "lng": 47.91951,
        "country": "IQ",
        "state": "02",
        "population": 107620
    },
    "90026": {
        "geoid": "90026",
        "name": "Tozkhurmato",
        "lat": 34.88808,
        "lng": 44.63256,
        "country": "IQ",
        "state": "18",
        "population": 59886
    },
    "90708": {
        "geoid": "90708",
        "name": "Sīnah",
        "lat": 36.80752,
        "lng": 43.03831,
        "country": "IQ",
        "state": "08",
        "population": 128776
    },
    "91597": {
        "geoid": "91597",
        "name": "Sāmarrā’",
        "lat": 34.1959,
        "lng": 43.88568,
        "country": "IQ",
        "state": "18",
        "population": 158508
    },
    "94787": {
        "geoid": "94787",
        "name": "Kirkuk",
        "lat": 35.46806,
        "lng": 44.39222,
        "country": "IQ",
        "state": "13",
        "population": 601433
    },
    "94824": {
        "geoid": "94824",
        "name": "Karbala",
        "lat": 32.61603,
        "lng": 44.02488,
        "country": "IQ",
        "state": "12",
        "population": 434450
    },
    "95446": {
        "geoid": "95446",
        "name": "Erbil",
        "lat": 36.19257,
        "lng": 44.01062,
        "country": "IQ",
        "state": "11",
        "population": 932800
    },
    "96205": {
        "geoid": "96205",
        "name": "Ḩalabjah",
        "lat": 35.17778,
        "lng": 45.98611,
        "country": "IQ",
        "state": "05",
        "population": 57333
    },
    "96994": {
        "geoid": "96994",
        "name": "Dihok",
        "lat": 36.86709,
        "lng": 42.98845,
        "country": "IQ",
        "state": "08",
        "population": 284000
    },
    "97417": {
        "geoid": "97417",
        "name": "Jamjamāl",
        "lat": 35.53356,
        "lng": 44.8343,
        "country": "IQ",
        "state": "05",
        "population": 75634
    },
    "97990": {
        "geoid": "97990",
        "name": "Baqubah",
        "lat": 33.75403,
        "lng": 44.60518,
        "country": "IQ",
        "state": "10",
        "population": 152550
    },
    "98182": {
        "geoid": "98182",
        "name": "Baghdad",
        "lat": 33.34058,
        "lng": 44.40088,
        "country": "IQ",
        "state": "07",
        "population": 7216000
    },
    "98245": {
        "geoid": "98245",
        "name": "Az Zubayr",
        "lat": 30.39213,
        "lng": 47.70175,
        "country": "IQ",
        "state": "02",
        "population": 122676
    },
    "98463": {
        "geoid": "98463",
        "name": "As Sulaymānīyah",
        "lat": 35.56496,
        "lng": 45.4329,
        "country": "IQ",
        "state": "05",
        "population": 723170
    },
    "98530": {
        "geoid": "98530",
        "name": "As Samawah",
        "lat": 31.33198,
        "lng": 45.2944,
        "country": "IQ",
        "state": "03",
        "population": 152890
    },
    "98622": {
        "geoid": "98622",
        "name": "Ash Shaţrah",
        "lat": 31.40906,
        "lng": 46.1727,
        "country": "IQ",
        "state": "09",
        "population": 82732
    },
    "98629": {
        "geoid": "98629",
        "name": "Ash Shāmīyah",
        "lat": 31.96257,
        "lng": 44.60075,
        "country": "IQ",
        "state": "04",
        "population": 57661
    },
    "98717": {
        "geoid": "98717",
        "name": "Ramadi",
        "lat": 33.42056,
        "lng": 43.30778,
        "country": "IQ",
        "state": "01",
        "population": 274539
    },
    "98854": {
        "geoid": "98854",
        "name": "An Nāşirīyah",
        "lat": 31.05799,
        "lng": 46.25726,
        "country": "IQ",
        "state": "09",
        "population": 400249
    },
    "98860": {
        "geoid": "98860",
        "name": "Najaf",
        "lat": 32.02594,
        "lng": 44.34625,
        "country": "IQ",
        "state": "17",
        "population": 482576
    },
    "99062": {
        "geoid": "99062",
        "name": "Al Miqdādīyah",
        "lat": 33.97861,
        "lng": 44.93694,
        "country": "IQ",
        "state": "10",
        "population": 50698
    },
    "99071": {
        "geoid": "99071",
        "name": "Al Mawşil al Jadīdah",
        "lat": 36.33271,
        "lng": 43.10555,
        "country": "IQ",
        "state": "15",
        "population": 2065597
    },
    "99072": {
        "geoid": "99072",
        "name": "Mosul",
        "lat": 36.335,
        "lng": 43.11889,
        "country": "IQ",
        "state": "15",
        "population": 1739800
    },
    "99131": {
        "geoid": "99131",
        "name": "Al Kūt",
        "lat": 32.5128,
        "lng": 45.81817,
        "country": "IQ",
        "state": "16",
        "population": 315162
    },
    "99135": {
        "geoid": "99135",
        "name": "Kufa",
        "lat": 32.05114,
        "lng": 44.44017,
        "country": "IQ",
        "state": "17",
        "population": 110000
    },
    "99169": {
        "geoid": "99169",
        "name": "Khāliş",
        "lat": 33.80809,
        "lng": 44.53343,
        "country": "IQ",
        "state": "10",
        "population": 70046
    },
    "99344": {
        "geoid": "99344",
        "name": "Al Hindīyah",
        "lat": 32.54671,
        "lng": 44.22765,
        "country": "IQ",
        "state": "12",
        "population": 57490
    },
    "99347": {
        "geoid": "99347",
        "name": "Al Ḩillah",
        "lat": 32.46367,
        "lng": 44.41963,
        "country": "IQ",
        "state": "06",
        "population": 289709
    },
    "99350": {
        "geoid": "99350",
        "name": "Al Ḩayy",
        "lat": 32.17419,
        "lng": 46.04345,
        "country": "IQ",
        "state": "16",
        "population": 78272
    },
    "99369": {
        "geoid": "99369",
        "name": "Al Hārithah",
        "lat": 30.58481,
        "lng": 47.76114,
        "country": "IQ",
        "state": "02",
        "population": 92395
    },
    "99446": {
        "geoid": "99446",
        "name": "Al Fāw",
        "lat": 29.97421,
        "lng": 48.47309,
        "country": "IQ",
        "state": "02",
        "population": 104569
    },
    "99454": {
        "geoid": "99454",
        "name": "Al Fallūjah",
        "lat": 33.34913,
        "lng": 43.78599,
        "country": "IQ",
        "state": "01",
        "population": 190159
    },
    "99532": {
        "geoid": "99532",
        "name": "Basrah",
        "lat": 30.50852,
        "lng": 47.7804,
        "country": "IQ",
        "state": "02",
        "population": 2600000
    },
    "99608": {
        "geoid": "99608",
        "name": "Al ‘Amārah",
        "lat": 31.83561,
        "lng": 47.14483,
        "country": "IQ",
        "state": "14",
        "population": 323302
    },
    "99762": {
        "geoid": "99762",
        "name": "Ad Dīwānīyah",
        "lat": 31.99289,
        "lng": 44.92552,
        "country": "IQ",
        "state": "04",
        "population": 318801
    },
    "100077": {
        "geoid": "100077",
        "name": "Abū Ghurayb",
        "lat": 33.30563,
        "lng": 44.18477,
        "country": "IQ",
        "state": "07",
        "population": 900000
    },
    "388349": {
        "geoid": "388349",
        "name": "Al Başrah al Qadīmah",
        "lat": 30.50316,
        "lng": 47.81507,
        "country": "IQ",
        "state": "02",
        "population": 2015483
    }
}