{
    "1832384": {
        "geoid": "1832384",
        "name": "Eisen",
        "lat": 36.82167,
        "lng": 128.63083,
        "country": "KR",
        "state": "14",
        "population": 84625
    },
    "1832617": {
        "geoid": "1832617",
        "name": "Eisen",
        "lat": 35.9675,
        "lng": 128.93083,
        "country": "KR",
        "state": "14",
        "population": 56006
    },
    "1832828": {
        "geoid": "1832828",
        "name": "Yangsan",
        "lat": 35.34199,
        "lng": 129.03358,
        "country": "KR",
        "state": "20",
        "population": 71936
    },
    "1832830": {
        "geoid": "1832830",
        "name": "Yangp'yŏng",
        "lat": 37.48972,
        "lng": 127.49056,
        "country": "KR",
        "state": "13",
        "population": 83367
    },
    "1832847": {
        "geoid": "1832847",
        "name": "Yangju",
        "lat": 37.83311,
        "lng": 127.06169,
        "country": "KR",
        "state": "13",
        "population": 179923
    },
    "1833105": {
        "geoid": "1833105",
        "name": "Wŏnju",
        "lat": 37.35139,
        "lng": 127.94528,
        "country": "KR",
        "state": "06",
        "population": 243387
    },
    "1833466": {
        "geoid": "1833466",
        "name": "Wanju",
        "lat": 35.84509,
        "lng": 127.14752,
        "country": "KR",
        "state": "03",
        "population": 84009
    },
    "1833747": {
        "geoid": "1833747",
        "name": "Ulsan",
        "lat": 35.53722,
        "lng": 129.31667,
        "country": "KR",
        "state": "21",
        "population": 962865
    },
    "1833788": {
        "geoid": "1833788",
        "name": "Uijeongbu-si",
        "lat": 37.7415,
        "lng": 127.0474,
        "country": "KR",
        "state": "13",
        "population": 479141
    },
    "1835235": {
        "geoid": "1835235",
        "name": "Daejeon",
        "lat": 36.32139,
        "lng": 127.41972,
        "country": "KR",
        "state": "19",
        "population": 1475221
    },
    "1835329": {
        "geoid": "1835329",
        "name": "Daegu",
        "lat": 35.87028,
        "lng": 128.59111,
        "country": "KR",
        "state": "15",
        "population": 2566540
    },
    "1835447": {
        "geoid": "1835447",
        "name": "Taisen-ri",
        "lat": 36.34931,
        "lng": 126.59772,
        "country": "KR",
        "state": "17",
        "population": 62039
    },
    "1835553": {
        "geoid": "1835553",
        "name": "Suwon-si",
        "lat": 37.29111,
        "lng": 127.00889,
        "country": "KR",
        "state": "13",
        "population": 1242724
    },
    "1835648": {
        "geoid": "1835648",
        "name": "Suncheon",
        "lat": 34.94808,
        "lng": 127.48947,
        "country": "KR",
        "state": "16",
        "population": 230796
    },
    "1835848": {
        "geoid": "1835848",
        "name": "Seoul",
        "lat": 37.566,
        "lng": 126.9784,
        "country": "KR",
        "state": "11",
        "population": 10349312
    },
    "1835895": {
        "geoid": "1835895",
        "name": "Suisan",
        "lat": 36.78167,
        "lng": 126.45222,
        "country": "KR",
        "state": "17",
        "population": 74208
    },
    "1836553": {
        "geoid": "1836553",
        "name": "Sokcho",
        "lat": 38.20701,
        "lng": 128.59181,
        "country": "KR",
        "state": "06",
        "population": 89047
    },
    "1837706": {
        "geoid": "1837706",
        "name": "Sangju",
        "lat": 36.41528,
        "lng": 128.16056,
        "country": "KR",
        "state": "14",
        "population": 55640
    },
    "1838524": {
        "geoid": "1838524",
        "name": "Busan",
        "lat": 35.10278,
        "lng": 129.04028,
        "country": "KR",
        "state": "10",
        "population": 3678555
    },
    "1838716": {
        "geoid": "1838716",
        "name": "Bucheon-si",
        "lat": 37.49889,
        "lng": 126.78306,
        "country": "KR",
        "state": "13",
        "population": 850731
    },
    "1839071": {
        "geoid": "1839071",
        "name": "Pohang",
        "lat": 36.03222,
        "lng": 129.365,
        "country": "KR",
        "state": "14",
        "population": 500000
    },
    "1839652": {
        "geoid": "1839652",
        "name": "Osan",
        "lat": 37.15222,
        "lng": 127.07056,
        "country": "KR",
        "state": "13",
        "population": 158978
    },
    "1839726": {
        "geoid": "1839726",
        "name": "Asan",
        "lat": 36.78361,
        "lng": 127.00417,
        "country": "KR",
        "state": "17",
        "population": 97749
    },
    "1839873": {
        "geoid": "1839873",
        "name": "Okcheon",
        "lat": 36.3012,
        "lng": 127.568,
        "country": "KR",
        "state": "05",
        "population": 56634
    },
    "1840179": {
        "geoid": "1840179",
        "name": "Kosong",
        "lat": 38.37881,
        "lng": 128.4676,
        "country": "KR",
        "state": "06",
        "population": 62446
    },
    "1840379": {
        "geoid": "1840379",
        "name": "Nangen",
        "lat": 35.41,
        "lng": 127.38583,
        "country": "KR",
        "state": "03",
        "population": 58057
    },
    "1840886": {
        "geoid": "1840886",
        "name": "Mungyeong",
        "lat": 36.59458,
        "lng": 128.19946,
        "country": "KR",
        "state": "14",
        "population": 81525
    },
    "1840982": {
        "geoid": "1840982",
        "name": "Muan",
        "lat": 34.99014,
        "lng": 126.47899,
        "country": "KR",
        "state": "16",
        "population": 75718
    },
    "1841066": {
        "geoid": "1841066",
        "name": "Moppo",
        "lat": 34.79361,
        "lng": 126.38861,
        "country": "KR",
        "state": "16",
        "population": 268402
    },
    "1841149": {
        "geoid": "1841149",
        "name": "Miryang",
        "lat": 35.49333,
        "lng": 128.74889,
        "country": "KR",
        "state": "20",
        "population": 53103
    },
    "1841598": {
        "geoid": "1841598",
        "name": "Gyeongsan-si",
        "lat": 35.82333,
        "lng": 128.73778,
        "country": "KR",
        "state": "14",
        "population": 129903
    },
    "1841603": {
        "geoid": "1841603",
        "name": "Kyonju",
        "lat": 35.84278,
        "lng": 129.21167,
        "country": "KR",
        "state": "14",
        "population": 155237
    },
    "1841775": {
        "geoid": "1841775",
        "name": "Kwangyang",
        "lat": 34.97528,
        "lng": 127.58917,
        "country": "KR",
        "state": "16",
        "population": 89281
    },
    "1841810": {
        "geoid": "1841810",
        "name": "Gwangju",
        "lat": 37.41,
        "lng": 127.25722,
        "country": "KR",
        "state": "13",
        "population": 81780
    },
    "1841811": {
        "geoid": "1841811",
        "name": "Gwangju",
        "lat": 35.15472,
        "lng": 126.91556,
        "country": "KR",
        "state": "18",
        "population": 1416938
    },
    "1841988": {
        "geoid": "1841988",
        "name": "Guri-si",
        "lat": 37.5986,
        "lng": 127.1394,
        "country": "KR",
        "state": "13",
        "population": 195236
    },
    "1842025": {
        "geoid": "1842025",
        "name": "Kunsan",
        "lat": 35.97861,
        "lng": 126.71139,
        "country": "KR",
        "state": "03",
        "population": 243406
    },
    "1842225": {
        "geoid": "1842225",
        "name": "Gumi",
        "lat": 36.1136,
        "lng": 128.336,
        "country": "KR",
        "state": "14",
        "population": 291006
    },
    "1842485": {
        "geoid": "1842485",
        "name": "Goyang-si",
        "lat": 37.65639,
        "lng": 126.835,
        "country": "KR",
        "state": "13",
        "population": 1073069
    },
    "1842616": {
        "geoid": "1842616",
        "name": "Gongju",
        "lat": 36.45556,
        "lng": 127.12472,
        "country": "KR",
        "state": "17",
        "population": 72435
    },
    "1842754": {
        "geoid": "1842754",
        "name": "Kyosai",
        "lat": 34.85028,
        "lng": 128.58861,
        "country": "KR",
        "state": "20",
        "population": 72124
    },
    "1842859": {
        "geoid": "1842859",
        "name": "Koch'ang",
        "lat": 35.43333,
        "lng": 126.7,
        "country": "KR",
        "state": "03",
        "population": 72996
    },
    "1842943": {
        "geoid": "1842943",
        "name": "Kimhae",
        "lat": 35.23417,
        "lng": 128.88111,
        "country": "KR",
        "state": "20",
        "population": 356242
    },
    "1842944": {
        "geoid": "1842944",
        "name": "Gimcheon",
        "lat": 36.12176,
        "lng": 128.11981,
        "country": "KR",
        "state": "14",
        "population": 150000
    },
    "1843082": {
        "geoid": "1843082",
        "name": "Gapyeong",
        "lat": 37.83101,
        "lng": 127.51059,
        "country": "KR",
        "state": "13",
        "population": 55415
    },
    "1843137": {
        "geoid": "1843137",
        "name": "Kang-neung",
        "lat": 37.75556,
        "lng": 128.89611,
        "country": "KR",
        "state": "06",
        "population": 180611
    },
    "1843491": {
        "geoid": "1843491",
        "name": "Iksan",
        "lat": 35.94389,
        "lng": 126.95444,
        "country": "KR",
        "state": "03",
        "population": 283501
    },
    "1843564": {
        "geoid": "1843564",
        "name": "Incheon",
        "lat": 37.45646,
        "lng": 126.70515,
        "country": "KR",
        "state": "12",
        "population": 2628000
    },
    "1843702": {
        "geoid": "1843702",
        "name": "Icheon-si",
        "lat": 37.27917,
        "lng": 127.4425,
        "country": "KR",
        "state": "13",
        "population": 196230
    },
    "1843841": {
        "geoid": "1843841",
        "name": "Hwasun",
        "lat": 35.05944,
        "lng": 126.985,
        "country": "KR",
        "state": "16",
        "population": 59914
    },
    "1843847": {
        "geoid": "1843847",
        "name": "Hwaseong-si",
        "lat": 37.20682,
        "lng": 126.8169,
        "country": "KR",
        "state": "13",
        "population": 476297
    },
    "1844174": {
        "geoid": "1844174",
        "name": "Hongsung",
        "lat": 36.6009,
        "lng": 126.665,
        "country": "KR",
        "state": "17",
        "population": 89174
    },
    "1844191": {
        "geoid": "1844191",
        "name": "Hongch’ŏn",
        "lat": 37.6918,
        "lng": 127.8857,
        "country": "KR",
        "state": "06",
        "population": 75251
    },
    "1845136": {
        "geoid": "1845136",
        "name": "Chuncheon",
        "lat": 37.87472,
        "lng": 127.73417,
        "country": "KR",
        "state": "06",
        "population": 209746
    },
    "1845457": {
        "geoid": "1845457",
        "name": "Jeonju",
        "lat": 35.82194,
        "lng": 127.14889,
        "country": "KR",
        "state": "03",
        "population": 711424
    },
    "1845604": {
        "geoid": "1845604",
        "name": "Cheongju-si",
        "lat": 36.63722,
        "lng": 127.48972,
        "country": "KR",
        "state": "05",
        "population": 634596
    },
    "1845759": {
        "geoid": "1845759",
        "name": "Cheonan",
        "lat": 36.8065,
        "lng": 127.1522,
        "country": "KR",
        "state": "17",
        "population": 365114
    },
    "1846052": {
        "geoid": "1846052",
        "name": "Chinju",
        "lat": 35.19278,
        "lng": 128.08472,
        "country": "KR",
        "state": "20",
        "population": 307242
    },
    "1846095": {
        "geoid": "1846095",
        "name": "Chinch'ŏn",
        "lat": 36.85667,
        "lng": 127.44333,
        "country": "KR",
        "state": "05",
        "population": 60964
    },
    "1846266": {
        "geoid": "1846266",
        "name": "Jeju City",
        "lat": 33.50972,
        "lng": 126.52194,
        "country": "KR",
        "state": "01",
        "population": 408364
    },
    "1846326": {
        "geoid": "1846326",
        "name": "Changwon",
        "lat": 35.22806,
        "lng": 128.68111,
        "country": "KR",
        "state": "20",
        "population": 550000
    },
    "1846898": {
        "geoid": "1846898",
        "name": "Anyang-si",
        "lat": 37.3925,
        "lng": 126.92694,
        "country": "KR",
        "state": "13",
        "population": 634367
    },
    "1846912": {
        "geoid": "1846912",
        "name": "Anseong",
        "lat": 37.01083,
        "lng": 127.27028,
        "country": "KR",
        "state": "13",
        "population": 69255
    },
    "1846918": {
        "geoid": "1846918",
        "name": "Ansan-si",
        "lat": 37.32361,
        "lng": 126.82194,
        "country": "KR",
        "state": "13",
        "population": 650728
    },
    "1846986": {
        "geoid": "1846986",
        "name": "Andong",
        "lat": 36.56556,
        "lng": 128.725,
        "country": "KR",
        "state": "14",
        "population": 129319
    },
    "1882056": {
        "geoid": "1882056",
        "name": "Sinhyeon",
        "lat": 34.8825,
        "lng": 128.62667,
        "country": "KR",
        "state": "20",
        "population": 82560
    },
    "1884138": {
        "geoid": "1884138",
        "name": "Yeosu",
        "lat": 34.76278,
        "lng": 127.66528,
        "country": "KR",
        "state": "16",
        "population": 295538
    },
    "1892823": {
        "geoid": "1892823",
        "name": "Tonghae",
        "lat": 37.54389,
        "lng": 129.10694,
        "country": "KR",
        "state": "06",
        "population": 101128
    },
    "1896953": {
        "geoid": "1896953",
        "name": "Pubal",
        "lat": 37.29167,
        "lng": 127.50778,
        "country": "KR",
        "state": "13",
        "population": 63026
    },
    "1897000": {
        "geoid": "1897000",
        "name": "Seongnam-si",
        "lat": 37.43861,
        "lng": 127.13778,
        "country": "KR",
        "state": "13",
        "population": 1031935
    },
    "1897007": {
        "geoid": "1897007",
        "name": "Hanam",
        "lat": 37.54,
        "lng": 127.20556,
        "country": "KR",
        "state": "13",
        "population": 134902
    },
    "1897118": {
        "geoid": "1897118",
        "name": "Hwado",
        "lat": 37.6525,
        "lng": 127.3075,
        "country": "KR",
        "state": "13",
        "population": 106358
    },
    "1897122": {
        "geoid": "1897122",
        "name": "Namyangju",
        "lat": 37.63667,
        "lng": 127.21417,
        "country": "KR",
        "state": "13",
        "population": 90798
    },
    "1912205": {
        "geoid": "1912205",
        "name": "Ungsang",
        "lat": 35.40611,
        "lng": 129.16861,
        "country": "KR",
        "state": "20",
        "population": 83360
    },
    "1912209": {
        "geoid": "1912209",
        "name": "Wabu",
        "lat": 37.58972,
        "lng": 127.22028,
        "country": "KR",
        "state": "13",
        "population": 96775
    },
    "1925936": {
        "geoid": "1925936",
        "name": "Naesŏ",
        "lat": 35.24972,
        "lng": 128.52,
        "country": "KR",
        "state": "20",
        "population": 80987
    },
    "1925943": {
        "geoid": "1925943",
        "name": "Hwawŏn",
        "lat": 35.80167,
        "lng": 128.50083,
        "country": "KR",
        "state": "15",
        "population": 64718
    },
    "1948005": {
        "geoid": "1948005",
        "name": "Kwangmyŏng",
        "lat": 37.47722,
        "lng": 126.86639,
        "country": "KR",
        "state": "13",
        "population": 357545
    },
    "6395804": {
        "geoid": "6395804",
        "name": "Sinan",
        "lat": 34.8262,
        "lng": 126.10863,
        "country": "KR",
        "state": "16",
        "population": 53150
    },
    "6621166": {
        "geoid": "6621166",
        "name": "Seogwipo",
        "lat": 33.25333,
        "lng": 126.56181,
        "country": "KR",
        "state": "01",
        "population": 155691
    },
    "6903078": {
        "geoid": "6903078",
        "name": "Changnyeong",
        "lat": 35.54145,
        "lng": 128.49506,
        "country": "KR",
        "state": "20",
        "population": 74668
    }
}