{
    "266045": {
        "geoid": "266045",
        "name": "Zahlé",
        "lat": 33.84675,
        "lng": 35.90203,
        "country": "LB",
        "state": "08",
        "population": 78145
    },
    "266826": {
        "geoid": "266826",
        "name": "Tripoli",
        "lat": 34.43667,
        "lng": 35.84972,
        "country": "LB",
        "state": "09",
        "population": 229398
    },
    "267008": {
        "geoid": "267008",
        "name": "Tyre",
        "lat": 33.27333,
        "lng": 35.19389,
        "country": "LB",
        "state": "06",
        "population": 135204
    },
    "268064": {
        "geoid": "268064",
        "name": "Sidon",
        "lat": 33.55993,
        "lng": 35.37564,
        "country": "LB",
        "state": "06",
        "population": 163554
    },
    "268743": {
        "geoid": "268743",
        "name": "Ra’s Bayrūt",
        "lat": 33.9,
        "lng": 35.48333,
        "country": "LB",
        "state": "04",
        "population": 1251739
    },
    "273140": {
        "geoid": "273140",
        "name": "Djounie",
        "lat": 33.98083,
        "lng": 35.61778,
        "country": "LB",
        "state": "05",
        "population": 96315
    },
    "274874": {
        "geoid": "274874",
        "name": "Habboûch",
        "lat": 33.40729,
        "lng": 35.48169,
        "country": "LB",
        "state": "07",
        "population": 98433
    },
    "276781": {
        "geoid": "276781",
        "name": "Beirut",
        "lat": 33.88894,
        "lng": 35.49442,
        "country": "LB",
        "state": "04",
        "population": 1916100
    },
    "278913": {
        "geoid": "278913",
        "name": "Nabatîyé et Tahta",
        "lat": 33.37889,
        "lng": 35.48389,
        "country": "LB",
        "state": "07",
        "population": 120000
    }
}