{
    "454432": {
        "geoid": "454432",
        "name": "Vec-Liepāja",
        "lat": 56.53333,
        "lng": 21.01667,
        "country": "LV",
        "state": "16",
        "population": 85260
    },
    "456172": {
        "geoid": "456172",
        "name": "Riga",
        "lat": 56.946,
        "lng": 24.10589,
        "country": "LV",
        "state": "25",
        "population": 742572
    },
    "457954": {
        "geoid": "457954",
        "name": "Liepāja",
        "lat": 56.51667,
        "lng": 21.01667,
        "country": "LV",
        "state": "16",
        "population": 85132
    },
    "459201": {
        "geoid": "459201",
        "name": "Jūrmala",
        "lat": 56.968,
        "lng": 23.77038,
        "country": "LV",
        "state": "13",
        "population": 54088
    },
    "459279": {
        "geoid": "459279",
        "name": "Jelgava",
        "lat": 56.65,
        "lng": 23.71278,
        "country": "LV",
        "state": "11",
        "population": 61791
    },
    "460413": {
        "geoid": "460413",
        "name": "Daugavpils",
        "lat": 55.88333,
        "lng": 26.53333,
        "country": "LV",
        "state": "07",
        "population": 111564
    }
}