{
    "617239": {
        "geoid": "617239",
        "name": "Tiraspolul",
        "lat": 46.84274,
        "lng": 29.62909,
        "country": "MD",
        "state": "58",
        "population": 157000
    },
    "617486": {
        "geoid": "617486",
        "name": "Rîbniţa",
        "lat": 47.76817,
        "lng": 29.01,
        "country": "MD",
        "state": "58",
        "population": 55455
    },
    "618426": {
        "geoid": "618426",
        "name": "Chişinău",
        "lat": 47.00556,
        "lng": 28.8575,
        "country": "MD",
        "state": "57",
        "population": 635994
    },
    "618577": {
        "geoid": "618577",
        "name": "Bender",
        "lat": 46.83156,
        "lng": 29.47769,
        "country": "MD",
        "state": "62",
        "population": 110175
    },
    "618605": {
        "geoid": "618605",
        "name": "Bălţi",
        "lat": 47.76314,
        "lng": 27.92932,
        "country": "MD",
        "state": "60",
        "population": 125000
    }
}