{
    "1282898": {
        "geoid": "1282898",
        "name": "Pokhara",
        "lat": 28.26689,
        "lng": 83.96851,
        "country": "NP",
        "state": "WR",
        "population": 200000
    },
    "1282931": {
        "geoid": "1282931",
        "name": "Pātan",
        "lat": 27.67658,
        "lng": 85.31417,
        "country": "NP",
        "state": "CR",
        "population": 183310
    },
    "1283095": {
        "geoid": "1283095",
        "name": "Mahendranagar",
        "lat": 28.91667,
        "lng": 80.33333,
        "country": "NP",
        "state": "FR",
        "population": 88381
    },
    "1283240": {
        "geoid": "1283240",
        "name": "Kathmandu",
        "lat": 27.70169,
        "lng": 85.3206,
        "country": "NP",
        "state": "CR",
        "population": 1442271
    },
    "1283318": {
        "geoid": "1283318",
        "name": "Janakpur",
        "lat": 26.71828,
        "lng": 85.90646,
        "country": "NP",
        "state": "CR",
        "population": 93767
    },
    "1283339": {
        "geoid": "1283339",
        "name": "Hetauda",
        "lat": 27.42839,
        "lng": 85.03219,
        "country": "NP",
        "state": "CR",
        "population": 84775
    },
    "1283368": {
        "geoid": "1283368",
        "name": "Gulariyā",
        "lat": 28.23333,
        "lng": 81.33333,
        "country": "NP",
        "state": "MR",
        "population": 53107
    },
    "1283460": {
        "geoid": "1283460",
        "name": "Dharān Bāzār",
        "lat": 26.81248,
        "lng": 87.28355,
        "country": "NP",
        "state": "ER",
        "population": 108600
    },
    "1283467": {
        "geoid": "1283467",
        "name": "Dhangarhi",
        "lat": 28.70792,
        "lng": 80.59611,
        "country": "NP",
        "state": "FR",
        "population": 92294
    },
    "1283562": {
        "geoid": "1283562",
        "name": "Butwāl",
        "lat": 27.70055,
        "lng": 83.44836,
        "country": "NP",
        "state": "WR",
        "population": 91733
    },
    "1283581": {
        "geoid": "1283581",
        "name": "Bīrganj",
        "lat": 27.01043,
        "lng": 84.87735,
        "country": "NP",
        "state": "CR",
        "population": 133238
    },
    "1283582": {
        "geoid": "1283582",
        "name": "Biratnagar",
        "lat": 26.45505,
        "lng": 87.27007,
        "country": "NP",
        "state": "ER",
        "population": 182324
    },
    "1283613": {
        "geoid": "1283613",
        "name": "Bharatpur",
        "lat": 27.68333,
        "lng": 84.43333,
        "country": "NP",
        "state": "CR",
        "population": 107157
    },
    "1283621": {
        "geoid": "1283621",
        "name": "Bhairāhawā",
        "lat": 27.5,
        "lng": 83.45,
        "country": "NP",
        "state": "WR",
        "population": 63367
    },
    "6941099": {
        "geoid": "6941099",
        "name": "Nepalgunj",
        "lat": 28.05,
        "lng": 81.61667,
        "country": "NP",
        "state": "MR",
        "population": 64400
    }
}