{
    "286245": {
        "geoid": "286245",
        "name": "Sur",
        "lat": 22.56667,
        "lng": 59.52889,
        "country": "OM",
        "state": "04",
        "population": 71152
    },
    "286282": {
        "geoid": "286282",
        "name": "Sohar",
        "lat": 24.35022,
        "lng": 56.70765,
        "country": "OM",
        "state": "11",
        "population": 108274
    },
    "286621": {
        "geoid": "286621",
        "name": "Şalālah",
        "lat": 17.01505,
        "lng": 54.09237,
        "country": "OM",
        "state": "08",
        "population": 163140
    },
    "286647": {
        "geoid": "286647",
        "name": "Şaḩam",
        "lat": 24.17222,
        "lng": 56.88861,
        "country": "OM",
        "state": "11",
        "population": 89327
    },
    "286987": {
        "geoid": "286987",
        "name": "Nizwá",
        "lat": 22.93333,
        "lng": 57.53333,
        "country": "OM",
        "state": "01",
        "population": 72076
    },
    "287286": {
        "geoid": "287286",
        "name": "Muscat",
        "lat": 23.58413,
        "lng": 58.40778,
        "country": "OM",
        "state": "06",
        "population": 797000
    },
    "287830": {
        "geoid": "287830",
        "name": "‘Ibrī",
        "lat": 23.22573,
        "lng": 56.51572,
        "country": "OM",
        "state": "09",
        "population": 101640
    },
    "288764": {
        "geoid": "288764",
        "name": "Bawshar",
        "lat": 23.55563,
        "lng": 58.3989,
        "country": "OM",
        "state": "06",
        "population": 159487
    },
    "288789": {
        "geoid": "288789",
        "name": "Barkā’",
        "lat": 23.70739,
        "lng": 57.88908,
        "country": "OM",
        "state": "02",
        "population": 81647
    },
    "288899": {
        "geoid": "288899",
        "name": "Bahlā’",
        "lat": 22.97339,
        "lng": 57.29958,
        "country": "OM",
        "state": "01",
        "population": 54338
    },
    "288955": {
        "geoid": "288955",
        "name": "As Suwayq",
        "lat": 23.84944,
        "lng": 57.43861,
        "country": "OM",
        "state": "11",
        "population": 107143
    },
    "288967": {
        "geoid": "288967",
        "name": "Seeb",
        "lat": 23.67027,
        "lng": 58.18911,
        "country": "OM",
        "state": "06",
        "population": 237816
    },
    "289011": {
        "geoid": "289011",
        "name": "Rustaq",
        "lat": 23.39083,
        "lng": 57.42444,
        "country": "OM",
        "state": "02",
        "population": 79383
    },
    "289199": {
        "geoid": "289199",
        "name": "Al Khābūrah",
        "lat": 23.98864,
        "lng": 57.09838,
        "country": "OM",
        "state": "11",
        "population": 50223
    },
    "289317": {
        "geoid": "289317",
        "name": "Al Buraymī",
        "lat": 24.25088,
        "lng": 55.79312,
        "country": "OM",
        "state": "10",
        "population": 73670
    }
}