{
    "3700563": {
        "geoid": "3700563",
        "name": "Tocumen",
        "lat": 9.08939,
        "lng": -79.3831,
        "country": "PA",
        "state": "08",
        "population": 88543
    },
    "3701329": {
        "geoid": "3701329",
        "name": "San Miguelito",
        "lat": 9.05032,
        "lng": -79.47068,
        "country": "PA",
        "state": "08",
        "population": 321501
    },
    "3703443": {
        "geoid": "3703443",
        "name": "Panamá",
        "lat": 8.9936,
        "lng": -79.51973,
        "country": "PA",
        "state": "08",
        "population": 408168
    },
    "3703647": {
        "geoid": "3703647",
        "name": "Pacora",
        "lat": 9.07937,
        "lng": -79.28997,
        "country": "PA",
        "state": "08",
        "population": 55530
    },
    "3706567": {
        "geoid": "3706567",
        "name": "Las Cumbres",
        "lat": 9.08916,
        "lng": -79.52809,
        "country": "PA",
        "state": "08",
        "population": 69102
    },
    "3707961": {
        "geoid": "3707961",
        "name": "La Chorrera",
        "lat": 8.88028,
        "lng": -79.78333,
        "country": "PA",
        "state": "08",
        "population": 61232
    },
    "3711668": {
        "geoid": "3711668",
        "name": "David",
        "lat": 8.42729,
        "lng": -82.43085,
        "country": "PA",
        "state": "02",
        "population": 82859
    },
    "3712076": {
        "geoid": "3712076",
        "name": "Colón",
        "lat": 9.35451,
        "lng": -79.90011,
        "country": "PA",
        "state": "04",
        "population": 76643
    },
    "3714637": {
        "geoid": "3714637",
        "name": "Arraiján",
        "lat": 8.95,
        "lng": -79.65,
        "country": "PA",
        "state": "08",
        "population": 76815
    }
}