{
    "2262963": {
        "geoid": "2262963",
        "name": "Setúbal",
        "lat": 38.5244,
        "lng": -8.8882,
        "country": "PT",
        "state": "19",
        "population": 117110
    },
    "2263827": {
        "geoid": "2263827",
        "name": "Rio de Mouro",
        "lat": 38.77457,
        "lng": -9.3276,
        "country": "PT",
        "state": "14",
        "population": 54695
    },
    "2264268": {
        "geoid": "2264268",
        "name": "Queluz",
        "lat": 38.75657,
        "lng": -9.25451,
        "country": "PT",
        "state": "14",
        "population": 103399
    },
    "2265467": {
        "geoid": "2265467",
        "name": "Odivelas",
        "lat": 38.79269,
        "lng": -9.1838,
        "country": "PT",
        "state": "14",
        "population": 54624
    },
    "2266977": {
        "geoid": "2266977",
        "name": "Loures",
        "lat": 38.83091,
        "lng": -9.16845,
        "country": "PT",
        "state": "14",
        "population": 66231
    },
    "2267057": {
        "geoid": "2267057",
        "name": "Lisbon",
        "lat": 38.71667,
        "lng": -9.13333,
        "country": "PT",
        "state": "14",
        "population": 517802
    },
    "2267827": {
        "geoid": "2267827",
        "name": "Funchal",
        "lat": 32.63333,
        "lng": -16.9,
        "country": "PT",
        "state": "10",
        "population": 100847
    },
    "2268406": {
        "geoid": "2268406",
        "name": "Évora",
        "lat": 38.56667,
        "lng": -7.9,
        "country": "PT",
        "state": "08",
        "population": 55620
    },
    "2269041": {
        "geoid": "2269041",
        "name": "Corroios",
        "lat": 38.64502,
        "lng": -9.14843,
        "country": "PT",
        "state": "19",
        "population": 52520
    },
    "2270503": {
        "geoid": "2270503",
        "name": "Cacém",
        "lat": 38.76698,
        "lng": -9.29793,
        "country": "PT",
        "state": "14",
        "population": 93982
    },
    "2271071": {
        "geoid": "2271071",
        "name": "Barreiro",
        "lat": 38.66314,
        "lng": -9.0724,
        "country": "PT",
        "state": "19",
        "population": 51280
    },
    "2271680": {
        "geoid": "2271680",
        "name": "Amora",
        "lat": 38.62961,
        "lng": -9.11557,
        "country": "PT",
        "state": "19",
        "population": 52577
    },
    "2271772": {
        "geoid": "2271772",
        "name": "Amadora",
        "lat": 38.75382,
        "lng": -9.23083,
        "country": "PT",
        "state": "14",
        "population": 178858
    },
    "2732544": {
        "geoid": "2732544",
        "name": "Vila Nova de Gaia",
        "lat": 41.13363,
        "lng": -8.61742,
        "country": "PT",
        "state": "17",
        "population": 70811
    },
    "2735943": {
        "geoid": "2735943",
        "name": "Porto",
        "lat": 41.14961,
        "lng": -8.61099,
        "country": "PT",
        "state": "17",
        "population": 249633
    },
    "2740637": {
        "geoid": "2740637",
        "name": "Coimbra",
        "lat": 40.20564,
        "lng": -8.41955,
        "country": "PT",
        "state": "07",
        "population": 106582
    },
    "2742032": {
        "geoid": "2742032",
        "name": "Braga",
        "lat": 41.55032,
        "lng": -8.42005,
        "country": "PT",
        "state": "04",
        "population": 121394
    },
    "2742611": {
        "geoid": "2742611",
        "name": "Aveiro",
        "lat": 40.64427,
        "lng": -8.64554,
        "country": "PT",
        "state": "02",
        "population": 54162
    }
}