{
    "602150": {
        "geoid": "602150",
        "name": "Umeå",
        "lat": 63.82842,
        "lng": 20.25972,
        "country": "SE",
        "state": "23",
        "population": 74005
    },
    "2663536": {
        "geoid": "2663536",
        "name": "Växjö",
        "lat": 56.87767,
        "lng": 14.80906,
        "country": "SE",
        "state": "12",
        "population": 59600
    },
    "2664454": {
        "geoid": "2664454",
        "name": "Västerås",
        "lat": 59.61617,
        "lng": 16.55276,
        "country": "SE",
        "state": "25",
        "population": 107194
    },
    "2666199": {
        "geoid": "2666199",
        "name": "Uppsala",
        "lat": 59.85882,
        "lng": 17.63889,
        "country": "SE",
        "state": "21",
        "population": 127734
    },
    "2669772": {
        "geoid": "2669772",
        "name": "Täby",
        "lat": 59.4439,
        "lng": 18.06872,
        "country": "SE",
        "state": "26",
        "population": 58123
    },
    "2673730": {
        "geoid": "2673730",
        "name": "Stockholm",
        "lat": 59.33258,
        "lng": 18.0649,
        "country": "SE",
        "state": "26",
        "population": 1253309
    },
    "2675397": {
        "geoid": "2675397",
        "name": "Solna",
        "lat": 59.36004,
        "lng": 18.00086,
        "country": "SE",
        "state": "26",
        "population": 66909
    },
    "2675408": {
        "geoid": "2675408",
        "name": "Sollentuna",
        "lat": 59.42804,
        "lng": 17.95093,
        "country": "SE",
        "state": "26",
        "population": 58897
    },
    "2676176": {
        "geoid": "2676176",
        "name": "Södertälje",
        "lat": 59.19554,
        "lng": 17.62525,
        "country": "SE",
        "state": "26",
        "population": 60279
    },
    "2686657": {
        "geoid": "2686657",
        "name": "Örebro",
        "lat": 59.27412,
        "lng": 15.2066,
        "country": "SE",
        "state": "15",
        "population": 98573
    },
    "2688368": {
        "geoid": "2688368",
        "name": "Norrköping",
        "lat": 58.59419,
        "lng": 16.1826,
        "country": "SE",
        "state": "16",
        "population": 82903
    },
    "2691459": {
        "geoid": "2691459",
        "name": "Mölndal",
        "lat": 57.6554,
        "lng": 12.01378,
        "country": "SE",
        "state": "28",
        "population": 59430
    },
    "2692969": {
        "geoid": "2692969",
        "name": "Malmö",
        "lat": 55.60587,
        "lng": 13.00073,
        "country": "SE",
        "state": "27",
        "population": 261548
    },
    "2693678": {
        "geoid": "2693678",
        "name": "Lund",
        "lat": 55.70584,
        "lng": 13.19321,
        "country": "SE",
        "state": "27",
        "population": 76263
    },
    "2694762": {
        "geoid": "2694762",
        "name": "Linköping",
        "lat": 58.41086,
        "lng": 15.62157,
        "country": "SE",
        "state": "16",
        "population": 96732
    },
    "2701680": {
        "geoid": "2701680",
        "name": "Karlstad",
        "lat": 59.3793,
        "lng": 13.50357,
        "country": "SE",
        "state": "22",
        "population": 59266
    },
    "2702979": {
        "geoid": "2702979",
        "name": "Jönköping",
        "lat": 57.78145,
        "lng": 14.15618,
        "country": "SE",
        "state": "08",
        "population": 83202
    },
    "2704620": {
        "geoid": "2704620",
        "name": "Huddinge",
        "lat": 59.23705,
        "lng": 17.98192,
        "country": "SE",
        "state": "26",
        "population": 90182
    },
    "2706767": {
        "geoid": "2706767",
        "name": "Helsingborg",
        "lat": 56.04673,
        "lng": 12.69437,
        "country": "SE",
        "state": "27",
        "population": 91025
    },
    "2707953": {
        "geoid": "2707953",
        "name": "Haninge",
        "lat": 59.16775,
        "lng": 18.14478,
        "country": "SE",
        "state": "26",
        "population": 74968
    },
    "2708365": {
        "geoid": "2708365",
        "name": "Halmstad",
        "lat": 56.67446,
        "lng": 12.85676,
        "country": "SE",
        "state": "06",
        "population": 55657
    },
    "2711537": {
        "geoid": "2711537",
        "name": "Göteborg",
        "lat": 57.70716,
        "lng": 11.96679,
        "country": "SE",
        "state": "28",
        "population": 504084
    },
    "2712414": {
        "geoid": "2712414",
        "name": "Gävle",
        "lat": 60.67452,
        "lng": 17.14174,
        "country": "SE",
        "state": "03",
        "population": 68635
    },
    "2715953": {
        "geoid": "2715953",
        "name": "Eskilstuna",
        "lat": 59.36661,
        "lng": 16.5077,
        "country": "SE",
        "state": "18",
        "population": 59016
    },
    "2719111": {
        "geoid": "2719111",
        "name": "Bromma",
        "lat": 59.34,
        "lng": 17.94,
        "country": "SE",
        "state": "26",
        "population": 61000
    },
    "2720501": {
        "geoid": "2720501",
        "name": "Borås",
        "lat": 57.72101,
        "lng": 12.9401,
        "country": "SE",
        "state": "28",
        "population": 63223
    }
}