{
    "52867": {
        "geoid": "52867",
        "name": "Qoryooley",
        "lat": 1.78784,
        "lng": 44.52999,
        "country": "SO",
        "state": "14",
        "population": 51720
    },
    "53654": {
        "geoid": "53654",
        "name": "Mogadishu",
        "lat": 2.03711,
        "lng": 45.34375,
        "country": "SO",
        "state": "02",
        "population": 2587183
    },
    "54225": {
        "geoid": "54225",
        "name": "Marka",
        "lat": 1.71594,
        "lng": 44.77166,
        "country": "SO",
        "state": "14",
        "population": 230100
    },
    "55671": {
        "geoid": "55671",
        "name": "Kismayo",
        "lat": -0.35817,
        "lng": 42.54536,
        "country": "SO",
        "state": "09",
        "population": 234852
    },
    "56399": {
        "geoid": "56399",
        "name": "Jamaame",
        "lat": 0.06968,
        "lng": 42.74497,
        "country": "SO",
        "state": "09",
        "population": 185270
    },
    "57289": {
        "geoid": "57289",
        "name": "Hargeysa",
        "lat": 9.56,
        "lng": 44.065,
        "country": "SO",
        "state": "20",
        "population": 477876
    },
    "58933": {
        "geoid": "58933",
        "name": "Garoowe",
        "lat": 8.40207,
        "lng": 48.48284,
        "country": "SO",
        "state": "18",
        "population": 57300
    },
    "59611": {
        "geoid": "59611",
        "name": "Gaalkacyo",
        "lat": 6.76972,
        "lng": 47.43083,
        "country": "SO",
        "state": "10",
        "population": 61200
    },
    "63795": {
        "geoid": "63795",
        "name": "Burao",
        "lat": 9.52213,
        "lng": 45.53363,
        "country": "SO",
        "state": "19",
        "population": 99270
    },
    "64013": {
        "geoid": "64013",
        "name": "Bosaso",
        "lat": 11.28421,
        "lng": 49.18158,
        "country": "SO",
        "state": "03",
        "population": 74287
    },
    "64435": {
        "geoid": "64435",
        "name": "Berbera",
        "lat": 10.43959,
        "lng": 45.01432,
        "country": "SO",
        "state": "20",
        "population": 242344
    },
    "64460": {
        "geoid": "64460",
        "name": "Beledweyne",
        "lat": 4.73583,
        "lng": 45.20361,
        "country": "SO",
        "state": "07",
        "population": 55410
    },
    "64536": {
        "geoid": "64536",
        "name": "Baidoa",
        "lat": 3.11383,
        "lng": 43.6498,
        "country": "SO",
        "state": "04",
        "population": 129839
    },
    "65785": {
        "geoid": "65785",
        "name": "Afgooye",
        "lat": 2.1381,
        "lng": 45.1212,
        "country": "SO",
        "state": "14",
        "population": 65461
    },
    "400769": {
        "geoid": "400769",
        "name": "Laascaanood",
        "lat": 8.47738,
        "lng": 47.35971,
        "country": "SO",
        "state": "22",
        "population": 60100
    }
}