{
    "1665196": {
        "geoid": "1665196",
        "name": "Douliu",
        "lat": 23.70944,
        "lng": 120.54333,
        "country": "TW",
        "state": "04",
        "population": 104723
    },
    "1668341": {
        "geoid": "1668341",
        "name": "Taipei",
        "lat": 25.04776,
        "lng": 121.53185,
        "country": "TW",
        "state": "03",
        "population": 7871900
    },
    "1668355": {
        "geoid": "1668355",
        "name": "Tainan",
        "lat": 22.99083,
        "lng": 120.21333,
        "country": "TW",
        "state": "04",
        "population": 771235
    },
    "1668399": {
        "geoid": "1668399",
        "name": "Taichung",
        "lat": 24.1469,
        "lng": 120.6839,
        "country": "TW",
        "state": "04",
        "population": 1040725
    },
    "1668467": {
        "geoid": "1668467",
        "name": "Daxi",
        "lat": 24.88373,
        "lng": 121.29043,
        "country": "TW",
        "state": "04",
        "population": 84549
    },
    "1670029": {
        "geoid": "1670029",
        "name": "Banqiao",
        "lat": 25.01427,
        "lng": 121.46719,
        "country": "TW",
        "state": "03",
        "population": 543342
    },
    "1670310": {
        "geoid": "1670310",
        "name": "Puli",
        "lat": 23.96639,
        "lng": 120.96952,
        "country": "TW",
        "state": "04",
        "population": 86406
    },
    "1671566": {
        "geoid": "1671566",
        "name": "Nantou",
        "lat": 23.91566,
        "lng": 120.66387,
        "country": "TW",
        "state": "04",
        "population": 105682
    },
    "1672228": {
        "geoid": "1672228",
        "name": "Magong",
        "lat": 23.5654,
        "lng": 119.58627,
        "country": "TW",
        "state": "04",
        "population": 56435
    },
    "1673820": {
        "geoid": "1673820",
        "name": "Kaohsiung",
        "lat": 22.61626,
        "lng": 120.31333,
        "country": "TW",
        "state": "02",
        "population": 1519711
    },
    "1674199": {
        "geoid": "1674199",
        "name": "Yilan",
        "lat": 24.757,
        "lng": 121.753,
        "country": "TW",
        "state": "04",
        "population": 94188
    },
    "1674504": {
        "geoid": "1674504",
        "name": "Hualien City",
        "lat": 23.97694,
        "lng": 121.60444,
        "country": "TW",
        "state": "04",
        "population": 350468
    },
    "1675151": {
        "geoid": "1675151",
        "name": "Hsinchu",
        "lat": 24.80361,
        "lng": 120.96861,
        "country": "TW",
        "state": "04",
        "population": 404109
    },
    "1678228": {
        "geoid": "1678228",
        "name": "Keelung",
        "lat": 25.12825,
        "lng": 121.7419,
        "country": "TW",
        "state": "04",
        "population": 397515
    },
    "6696918": {
        "geoid": "6696918",
        "name": "Taoyuan City",
        "lat": 24.99368,
        "lng": 121.29696,
        "country": "TW",
        "state": "04",
        "population": 402014
    },
    "6949678": {
        "geoid": "6949678",
        "name": "Taitung City",
        "lat": 22.7583,
        "lng": 121.1444,
        "country": "TW",
        "state": "04",
        "population": 109584
    }
}