{
    "3440034": {
        "geoid": "3440034",
        "name": "Tacuarembó",
        "lat": -31.71694,
        "lng": -55.98111,
        "country": "UY",
        "state": "18",
        "population": 51854
    },
    "3440714": {
        "geoid": "3440714",
        "name": "Salto",
        "lat": -31.38333,
        "lng": -57.96667,
        "country": "UY",
        "state": "15",
        "population": 99823
    },
    "3440781": {
        "geoid": "3440781",
        "name": "Rivera",
        "lat": -30.90534,
        "lng": -55.55076,
        "country": "UY",
        "state": "13",
        "population": 64631
    },
    "3441243": {
        "geoid": "3441243",
        "name": "Paysandú",
        "lat": -32.32139,
        "lng": -58.07556,
        "country": "UY",
        "state": "11",
        "population": 73249
    },
    "3441575": {
        "geoid": "3441575",
        "name": "Montevideo",
        "lat": -34.90328,
        "lng": -56.18816,
        "country": "UY",
        "state": "10",
        "population": 1270737
    },
    "3441702": {
        "geoid": "3441702",
        "name": "Melo",
        "lat": -32.37028,
        "lng": -54.1675,
        "country": "UY",
        "state": "03",
        "population": 51023
    },
    "3441894": {
        "geoid": "3441894",
        "name": "Maldonado",
        "lat": -34.9,
        "lng": -54.95,
        "country": "UY",
        "state": "09",
        "population": 55478
    },
    "3442057": {
        "geoid": "3442057",
        "name": "Las Piedras",
        "lat": -34.7302,
        "lng": -56.21915,
        "country": "UY",
        "state": "02",
        "population": 69682
    }
}