{
    "3486270": {
        "geoid": "3486270",
        "name": "Anaco",
        "lat": 9.43889,
        "lng": -64.47278,
        "country": "VE",
        "state": "02",
        "population": 117596
    },
    "3487903": {
        "geoid": "3487903",
        "name": "Alto Barinas",
        "lat": 8.5931,
        "lng": -70.2261,
        "country": "VE",
        "state": "05",
        "population": 284289
    },
    "3625207": {
        "geoid": "3625207",
        "name": "Yaritagua",
        "lat": 10.08,
        "lng": -69.12611,
        "country": "VE",
        "state": "22",
        "population": 89662
    },
    "3625341": {
        "geoid": "3625341",
        "name": "Villa de Cura",
        "lat": 10.03863,
        "lng": -67.48938,
        "country": "VE",
        "state": "04",
        "population": 76614
    },
    "3625515": {
        "geoid": "3625515",
        "name": "Valle de La Pascua",
        "lat": 9.21554,
        "lng": -66.00734,
        "country": "VE",
        "state": "12",
        "population": 89080
    },
    "3625542": {
        "geoid": "3625542",
        "name": "Valera",
        "lat": 9.31778,
        "lng": -70.60361,
        "country": "VE",
        "state": "21",
        "population": 93756
    },
    "3625549": {
        "geoid": "3625549",
        "name": "Valencia",
        "lat": 10.16202,
        "lng": -68.00765,
        "country": "VE",
        "state": "07",
        "population": 1385083
    },
    "3625710": {
        "geoid": "3625710",
        "name": "Upata",
        "lat": 8.00861,
        "lng": -62.39889,
        "country": "VE",
        "state": "06",
        "population": 53685
    },
    "3625829": {
        "geoid": "3625829",
        "name": "Turmero",
        "lat": 10.22856,
        "lng": -67.47421,
        "country": "VE",
        "state": "04",
        "population": 344700
    },
    "3625929": {
        "geoid": "3625929",
        "name": "Tucupita",
        "lat": 9.05806,
        "lng": -62.05,
        "country": "VE",
        "state": "09",
        "population": 51534
    },
    "3626219": {
        "geoid": "3626219",
        "name": "Tinaquillo",
        "lat": 9.91861,
        "lng": -68.30472,
        "country": "VE",
        "state": "08",
        "population": 82145
    },
    "3627047": {
        "geoid": "3627047",
        "name": "Santa Teresa",
        "lat": 10.23409,
        "lng": -66.66308,
        "country": "VE",
        "state": "15",
        "population": 278890
    },
    "3627968": {
        "geoid": "3627968",
        "name": "San Mateo",
        "lat": 10.21302,
        "lng": -67.42365,
        "country": "VE",
        "state": "04",
        "population": 50401
    },
    "3628053": {
        "geoid": "3628053",
        "name": "San Juan de los Morros",
        "lat": 9.91152,
        "lng": -67.35381,
        "country": "VE",
        "state": "12",
        "population": 87739
    },
    "3628142": {
        "geoid": "3628142",
        "name": "San José de Guanipa",
        "lat": 8.88724,
        "lng": -64.16512,
        "country": "VE",
        "state": "02",
        "population": 62128
    },
    "3628423": {
        "geoid": "3628423",
        "name": "San Felipe",
        "lat": 10.33991,
        "lng": -68.74247,
        "country": "VE",
        "state": "22",
        "population": 76766
    },
    "3628473": {
        "geoid": "3628473",
        "name": "San Cristóbal",
        "lat": 7.76694,
        "lng": -72.225,
        "country": "VE",
        "state": "20",
        "population": 246583
    },
    "3628489": {
        "geoid": "3628489",
        "name": "San Carlos del Zulia",
        "lat": 9.00003,
        "lng": -71.91352,
        "country": "VE",
        "state": "23",
        "population": 56582
    },
    "3628503": {
        "geoid": "3628503",
        "name": "San Carlos",
        "lat": 9.66124,
        "lng": -68.58268,
        "country": "VE",
        "state": "08",
        "population": 77192
    },
    "3628550": {
        "geoid": "3628550",
        "name": "San Antonio de Los Altos",
        "lat": 10.38853,
        "lng": -66.95179,
        "country": "VE",
        "state": "15",
        "population": 63873
    },
    "3628952": {
        "geoid": "3628952",
        "name": "Rubio",
        "lat": 7.70131,
        "lng": -72.35569,
        "country": "VE",
        "state": "20",
        "population": 51568
    },
    "3628966": {
        "geoid": "3628966",
        "name": "La Villa del Rosario",
        "lat": 10.3258,
        "lng": -72.31343,
        "country": "VE",
        "state": "23",
        "population": 65011
    },
    "3629576": {
        "geoid": "3629576",
        "name": "Punto Fijo",
        "lat": 11.6956,
        "lng": -70.19957,
        "country": "VE",
        "state": "11",
        "population": 131784
    },
    "3629614": {
        "geoid": "3629614",
        "name": "Punta Cardón",
        "lat": 11.65806,
        "lng": -70.215,
        "country": "VE",
        "state": "11",
        "population": 58926
    },
    "3629672": {
        "geoid": "3629672",
        "name": "Puerto La Cruz",
        "lat": 10.21667,
        "lng": -64.61667,
        "country": "VE",
        "state": "02",
        "population": 370000
    },
    "3629706": {
        "geoid": "3629706",
        "name": "Puerto Cabello",
        "lat": 10.47051,
        "lng": -68.02958,
        "country": "VE",
        "state": "07",
        "population": 174000
    },
    "3629710": {
        "geoid": "3629710",
        "name": "Puerto Ayacucho",
        "lat": 5.66049,
        "lng": -67.58343,
        "country": "VE",
        "state": "01",
        "population": 52526
    },
    "3629965": {
        "geoid": "3629965",
        "name": "Porlamar",
        "lat": 10.95796,
        "lng": -63.84906,
        "country": "VE",
        "state": "17",
        "population": 87120
    },
    "3630297": {
        "geoid": "3630297",
        "name": "Petare",
        "lat": 10.47226,
        "lng": -66.80155,
        "country": "VE",
        "state": "15",
        "population": 364684
    },
    "3630932": {
        "geoid": "3630932",
        "name": "Palo Negro",
        "lat": 10.17389,
        "lng": -67.54194,
        "country": "VE",
        "state": "04",
        "population": 128875
    },
    "3631412": {
        "geoid": "3631412",
        "name": "Ocumare del Tuy",
        "lat": 10.11649,
        "lng": -66.77609,
        "country": "VE",
        "state": "15",
        "population": 166072
    },
    "3631741": {
        "geoid": "3631741",
        "name": "Mucumpiz",
        "lat": 8.41667,
        "lng": -71.13333,
        "country": "VE",
        "state": "14",
        "population": 215259
    },
    "3632308": {
        "geoid": "3632308",
        "name": "Mérida",
        "lat": 8.58972,
        "lng": -71.15611,
        "country": "VE",
        "state": "14",
        "population": 300000
    },
    "3632929": {
        "geoid": "3632929",
        "name": "Mariara",
        "lat": 10.29644,
        "lng": -67.71813,
        "country": "VE",
        "state": "07",
        "population": 105486
    },
    "3632998": {
        "geoid": "3632998",
        "name": "Maracay",
        "lat": 10.23535,
        "lng": -67.59113,
        "country": "VE",
        "state": "04",
        "population": 1754256
    },
    "3633009": {
        "geoid": "3633009",
        "name": "Maracaibo",
        "lat": 10.66663,
        "lng": -71.61245,
        "country": "VE",
        "state": "23",
        "population": 2225000
    },
    "3633341": {
        "geoid": "3633341",
        "name": "Maiquetía",
        "lat": 10.59621,
        "lng": -66.95485,
        "country": "VE",
        "state": "26",
        "population": 52564
    },
    "3633444": {
        "geoid": "3633444",
        "name": "Machiques",
        "lat": 10.06077,
        "lng": -72.55212,
        "country": "VE",
        "state": "23",
        "population": 62968
    },
    "3633622": {
        "geoid": "3633622",
        "name": "Los Teques",
        "lat": 10.34447,
        "lng": -67.04325,
        "country": "VE",
        "state": "15",
        "population": 140617
    },
    "3634184": {
        "geoid": "3634184",
        "name": "Los Dos Caminos",
        "lat": 10.49389,
        "lng": -66.82863,
        "country": "VE",
        "state": "15",
        "population": 58168
    },
    "3634922": {
        "geoid": "3634922",
        "name": "La Victoria",
        "lat": 10.21844,
        "lng": -67.33017,
        "country": "VE",
        "state": "04",
        "population": 87045
    },
    "3639747": {
        "geoid": "3639747",
        "name": "Güigüe",
        "lat": 10.08528,
        "lng": -67.77917,
        "country": "VE",
        "state": "07",
        "population": 71530
    },
    "3639898": {
        "geoid": "3639898",
        "name": "Guatire",
        "lat": 10.4762,
        "lng": -66.54266,
        "country": "VE",
        "state": "15",
        "population": 191903
    },
    "3640049": {
        "geoid": "3640049",
        "name": "Guarenas",
        "lat": 10.46736,
        "lng": -66.60663,
        "country": "VE",
        "state": "15",
        "population": 181612
    },
    "3640226": {
        "geoid": "3640226",
        "name": "Guanare",
        "lat": 9.04183,
        "lng": -69.74206,
        "country": "VE",
        "state": "18",
        "population": 112286
    },
    "3640465": {
        "geoid": "3640465",
        "name": "Guacara",
        "lat": 10.22609,
        "lng": -67.877,
        "country": "VE",
        "state": "07",
        "population": 151752
    },
    "3641099": {
        "geoid": "3641099",
        "name": "El Vigía",
        "lat": 8.61366,
        "lng": -71.65284,
        "country": "VE",
        "state": "14",
        "population": 59092
    },
    "3641275": {
        "geoid": "3641275",
        "name": "El Tocuyo",
        "lat": 9.78734,
        "lng": -69.7937,
        "country": "VE",
        "state": "13",
        "population": 53099
    },
    "3641351": {
        "geoid": "3641351",
        "name": "El Tigre",
        "lat": 8.88752,
        "lng": -64.24544,
        "country": "VE",
        "state": "02",
        "population": 150999
    },
    "3642833": {
        "geoid": "3642833",
        "name": "El Limón",
        "lat": 10.30589,
        "lng": -67.63212,
        "country": "VE",
        "state": "04",
        "population": 148247
    },
    "3643031": {
        "geoid": "3643031",
        "name": "El Hatillo",
        "lat": 10.42994,
        "lng": -66.8161,
        "country": "VE",
        "state": "15",
        "population": 57591
    },
    "3644417": {
        "geoid": "3644417",
        "name": "Ejido",
        "lat": 8.54665,
        "lng": -71.24087,
        "country": "VE",
        "state": "14",
        "population": 106915
    },
    "3644768": {
        "geoid": "3644768",
        "name": "Cumaná",
        "lat": 10.45397,
        "lng": -64.18256,
        "country": "VE",
        "state": "19",
        "population": 257783
    },
    "3644918": {
        "geoid": "3644918",
        "name": "Cúa",
        "lat": 10.15892,
        "lng": -66.88575,
        "country": "VE",
        "state": "15",
        "population": 182558
    },
    "3645213": {
        "geoid": "3645213",
        "name": "Coro",
        "lat": 11.4045,
        "lng": -69.67344,
        "country": "VE",
        "state": "11",
        "population": 195227
    },
    "3645528": {
        "geoid": "3645528",
        "name": "Ciudad Guayana",
        "lat": 8.35122,
        "lng": -62.64102,
        "country": "VE",
        "state": "06",
        "population": 746535
    },
    "3645532": {
        "geoid": "3645532",
        "name": "Ciudad Bolívar",
        "lat": 8.12923,
        "lng": -63.54086,
        "country": "VE",
        "state": "06",
        "population": 338000
    },
    "3645854": {
        "geoid": "3645854",
        "name": "Charallave",
        "lat": 10.24247,
        "lng": -66.85723,
        "country": "VE",
        "state": "15",
        "population": 129182
    },
    "3645981": {
        "geoid": "3645981",
        "name": "Chacao",
        "lat": 10.49598,
        "lng": -66.85347,
        "country": "VE",
        "state": "15",
        "population": 64609
    },
    "3646169": {
        "geoid": "3646169",
        "name": "Caucagüito",
        "lat": 10.48666,
        "lng": -66.73799,
        "country": "VE",
        "state": "15",
        "population": 52556
    },
    "3646190": {
        "geoid": "3646190",
        "name": "Catia La Mar",
        "lat": 10.60383,
        "lng": -67.03034,
        "country": "VE",
        "state": "26",
        "population": 106822
    },
    "3646382": {
        "geoid": "3646382",
        "name": "Carúpano",
        "lat": 10.66516,
        "lng": -63.25387,
        "country": "VE",
        "state": "19",
        "population": 112082
    },
    "3646487": {
        "geoid": "3646487",
        "name": "Carora",
        "lat": 10.17554,
        "lng": -70.08275,
        "country": "VE",
        "state": "13",
        "population": 93788
    },
    "3646738": {
        "geoid": "3646738",
        "name": "Caracas",
        "lat": 10.48801,
        "lng": -66.87919,
        "country": "VE",
        "state": "25",
        "population": 3000000
    },
    "3647444": {
        "geoid": "3647444",
        "name": "Calabozo",
        "lat": 8.92416,
        "lng": -67.42929,
        "country": "VE",
        "state": "12",
        "population": 117132
    },
    "3647549": {
        "geoid": "3647549",
        "name": "Cagua",
        "lat": 10.18634,
        "lng": -67.45935,
        "country": "VE",
        "state": "04",
        "population": 119033
    },
    "3647651": {
        "geoid": "3647651",
        "name": "Cabimas",
        "lat": 10.38828,
        "lng": -71.43993,
        "country": "VE",
        "state": "23",
        "population": 200818
    },
    "3648439": {
        "geoid": "3648439",
        "name": "Baruta",
        "lat": 10.43398,
        "lng": -66.87662,
        "country": "VE",
        "state": "15",
        "population": 244216
    },
    "3648522": {
        "geoid": "3648522",
        "name": "Barquisimeto",
        "lat": 10.0647,
        "lng": -69.35703,
        "country": "VE",
        "state": "13",
        "population": 809490
    },
    "3648546": {
        "geoid": "3648546",
        "name": "Barinas",
        "lat": 8.62261,
        "lng": -70.20749,
        "country": "VE",
        "state": "05",
        "population": 353442
    },
    "3648559": {
        "geoid": "3648559",
        "name": "Barcelona",
        "lat": 10.13625,
        "lng": -64.68618,
        "country": "VE",
        "state": "02",
        "population": 424795
    },
    "3649017": {
        "geoid": "3649017",
        "name": "Araure",
        "lat": 9.56009,
        "lng": -69.21475,
        "country": "VE",
        "state": "18",
        "population": 73054
    },
    "3649833": {
        "geoid": "3649833",
        "name": "Acarigua",
        "lat": 9.55451,
        "lng": -69.19564,
        "country": "VE",
        "state": "18",
        "population": 143704
    },
    "3778045": {
        "geoid": "3778045",
        "name": "Maturín",
        "lat": 9.74569,
        "lng": -63.18323,
        "country": "VE",
        "state": "16",
        "population": 410972
    },
    "3803449": {
        "geoid": "3803449",
        "name": "El Cafetal",
        "lat": 10.46941,
        "lng": -66.83063,
        "country": "VE",
        "state": "15",
        "population": 80029
    },
    "3803515": {
        "geoid": "3803515",
        "name": "Caucaguita",
        "lat": 10.35782,
        "lng": -66.80252,
        "country": "VE",
        "state": "15",
        "population": 59000
    },
    "3803651": {
        "geoid": "3803651",
        "name": "La Dolorita",
        "lat": 10.4883,
        "lng": -66.78608,
        "country": "VE",
        "state": "15",
        "population": 56846
    },
    "3805673": {
        "geoid": "3805673",
        "name": "San Fernando de Apure",
        "lat": 7.88782,
        "lng": -67.47236,
        "country": "VE",
        "state": "03",
        "population": 78779
    }
}