{
    "784759": {
        "geoid": "784759",
        "name": "Ferizaj",
        "lat": 42.37056,
        "lng": 21.15528,
        "country": "XK",
        "state": "10096138",
        "population": 59504
    },
    "785238": {
        "geoid": "785238",
        "name": "Suva Reka",
        "lat": 42.35861,
        "lng": 20.825,
        "country": "XK",
        "state": "10097361",
        "population": 72229
    },
    "786712": {
        "geoid": "786712",
        "name": "Prizren",
        "lat": 42.21389,
        "lng": 20.73972,
        "country": "XK",
        "state": "10097361",
        "population": 171464
    },
    "786714": {
        "geoid": "786714",
        "name": "Pristina",
        "lat": 42.67272,
        "lng": 21.16688,
        "country": "XK",
        "state": "10097360",
        "population": 550000
    },
    "787157": {
        "geoid": "787157",
        "name": "Pejë",
        "lat": 42.65913,
        "lng": 20.28828,
        "country": "XK",
        "state": "10097359",
        "population": 81800
    },
    "789225": {
        "geoid": "789225",
        "name": "Mitrovicë",
        "lat": 42.88333,
        "lng": 20.86667,
        "country": "XK",
        "state": "10097358",
        "population": 107045
    },
    "790674": {
        "geoid": "790674",
        "name": "Gjilan",
        "lat": 42.46045,
        "lng": 21.46986,
        "country": "XK",
        "state": "10097357",
        "population": 51912
    },
    "790701": {
        "geoid": "790701",
        "name": "Glogovac",
        "lat": 42.62833,
        "lng": 20.89389,
        "country": "XK",
        "state": "10097360",
        "population": 58579
    },
    "791580": {
        "geoid": "791580",
        "name": "Deçan",
        "lat": 42.54018,
        "lng": 20.28793,
        "country": "XK",
        "state": "10096859",
        "population": 50500
    },
    "791646": {
        "geoid": "791646",
        "name": "Gjakovë",
        "lat": 42.38028,
        "lng": 20.43083,
        "country": "XK",
        "state": "10096859",
        "population": 94158
    }
}