{
    "901344": {
        "geoid": "901344",
        "name": "Ndola",
        "lat": -12.95867,
        "lng": 28.63659,
        "country": "ZM",
        "state": "08",
        "population": 394518
    },
    "905395": {
        "geoid": "905395",
        "name": "Mufulira",
        "lat": -12.54982,
        "lng": 28.24071,
        "country": "ZM",
        "state": "08",
        "population": 120500
    },
    "906054": {
        "geoid": "906054",
        "name": "Mongu",
        "lat": -15.24835,
        "lng": 23.12741,
        "country": "ZM",
        "state": "01",
        "population": 52534
    },
    "907111": {
        "geoid": "907111",
        "name": "Mazabuka",
        "lat": -15.85601,
        "lng": 27.748,
        "country": "ZM",
        "state": "07",
        "population": 64006
    },
    "909137": {
        "geoid": "909137",
        "name": "Lusaka",
        "lat": -15.40669,
        "lng": 28.28713,
        "country": "ZM",
        "state": "09",
        "population": 1267440
    },
    "909863": {
        "geoid": "909863",
        "name": "Luanshya",
        "lat": -13.13667,
        "lng": 28.41661,
        "country": "ZM",
        "state": "08",
        "population": 113365
    },
    "910111": {
        "geoid": "910111",
        "name": "Livingstone",
        "lat": -17.84194,
        "lng": 25.85425,
        "country": "ZM",
        "state": "07",
        "population": 109203
    },
    "911148": {
        "geoid": "911148",
        "name": "Kitwe",
        "lat": -12.80243,
        "lng": 28.21323,
        "country": "ZM",
        "state": "08",
        "population": 400914
    },
    "912764": {
        "geoid": "912764",
        "name": "Kasama",
        "lat": -10.21289,
        "lng": 31.18084,
        "country": "ZM",
        "state": "05",
        "population": 91056
    },
    "914959": {
        "geoid": "914959",
        "name": "Kalulushi",
        "lat": -12.84151,
        "lng": 28.09479,
        "country": "ZM",
        "state": "08",
        "population": 66575
    },
    "916095": {
        "geoid": "916095",
        "name": "Kabwe",
        "lat": -14.4469,
        "lng": 28.44644,
        "country": "ZM",
        "state": "02",
        "population": 188979
    },
    "918702": {
        "geoid": "918702",
        "name": "Chipata",
        "lat": -13.63333,
        "lng": 32.65,
        "country": "ZM",
        "state": "03",
        "population": 85963
    },
    "919009": {
        "geoid": "919009",
        "name": "Chingola",
        "lat": -12.52897,
        "lng": 27.88382,
        "country": "ZM",
        "state": "08",
        "population": 148564
    },
    "919544": {
        "geoid": "919544",
        "name": "Chililabombwe",
        "lat": -12.36475,
        "lng": 27.82286,
        "country": "ZM",
        "state": "08",
        "population": 57328
    }
}